[{"choicesId":43924,"_id":43924,"syndicationId":13726,"name":"DERRY DOWNS SURGERY","phone":"01689 820036","odsCode":"G84005","location":{"address":["The derry Downs Surgery","29 Derry Downs","St Mary Cray","Orpington","Kent"],"postcode":"BR5 4DU","latitude":51.3851737976074,"longitude":0.116665586829185}},{"choicesId":35708,"_id":35708,"syndicationId":14563,"name":"Ravensbury Park Medical Centre","phone":"020 84073927","odsCode":"H85110","location":{"address":["Ravensbury Park Medical Centre","Ravensbury Lane","Off Morden Road","Mitcham","Surrey"],"postcode":"CR4 4DQ","latitude":51.3985786437988,"longitude":-0.178447410464287}},{"choicesId":41214,"_id":41214,"syndicationId":5654,"name":"1 Huntingdon Road","phone":"01223 364127","odsCode":"D81002","location":{"address":["1 Huntingdon Road","Cambridge","Cambs"],"postcode":"CB3 0DB","latitude":52.2140350341797,"longitude":0.110104247927666}},{"choicesId":43550,"_id":43550,"syndicationId":13837,"name":"306 Medical Centre","phone":"020 8693 4704","odsCode":"G85091","location":{"address":["306 Lordship Lane","East Dulwich","London"],"postcode":"SE22 8LY","latitude":51.450740814209,"longitude":-0.07638830691576}},{"choicesId":36906,"_id":36906,"syndicationId":5689,"name":"45 High Street, Sawtry","phone":"01487 830340","odsCode":"D81027","location":{"address":["45 High Street","Sawtry","Huntingdon","Cambs"],"postcode":"PE28 5SU","latitude":52.4403228759766,"longitude":-0.284764975309372}},{"choicesId":46226,"_id":46226,"syndicationId":24998,"name":"7 Brooks Medical Practice (Dr Alistair Partnership)","phone":"01942 483250","odsCode":"P92652","location":{"address":["7 Brooks Medical Practice","21 Church Street","Manchester"],"postcode":"M46 9DE","latitude":53.5242347717285,"longitude":-2.48949432373047}},{"choicesId":35997,"_id":35997,"syndicationId":13256,"name":"85 Battle Road at Deanland Clinic","phone":"01323 848485","odsCode":"G81685","location":{"address":["85 Battle Road","85 Battle Road","Hailsham","East Sussex"],"postcode":"BN27 3RN","latitude":50.8828010559082,"longitude":0.169392168521881}},{"choicesId":41401,"_id":41401,"syndicationId":4233,"name":"Dr N Saddiq","phone":"0113 2954060","odsCode":"B86001","location":{"address":["Morley Health Centre","Corporation Street","Morley","Leeds"],"postcode":"LS27 9NB","latitude":53.7447776794434,"longitude":-1.6055223941803}},{"choicesId":40915,"_id":40915,"syndicationId":5876,"name":"Dr Hart & Partners","phone":"01366 383405","odsCode":"D82068","location":{"address":["Howdale Road","Downham Market","Norfolk"],"postcode":"PE38 9AF","latitude":52.6010246276855,"longitude":0.382187962532043}},{"choicesId":45178,"_id":45178,"syndicationId":13729,"name":"14 Manor Road","phone":"020 86500957","odsCode":"G84008","location":{"address":["The Surgery","14 Manor Road","Beckenham","Kent"],"postcode":"BR3 5LE","latitude":51.4071464538574,"longitude":-0.022529287263751}},{"choicesId":37846,"_id":37846,"syndicationId":13643,"name":"34 Plumstead Common Road","phone":"020-88540229","odsCode":"G83026","location":{"address":["34 Plumstead Common Road","Woolwich","Plumstead","London"],"postcode":"SE18 3TL","latitude":51.4819793701172,"longitude":0.0706208422780037}},{"choicesId":45095,"_id":45095,"syndicationId":14512,"name":"54 Benhill Avenue","phone":"020 86428011","odsCode":"H85031","location":{"address":["54 Benhill Avenue","Sutton","Surrey"],"postcode":"SM1 4EB","latitude":51.3666038513184,"longitude":-0.190275356173515}},{"choicesId":42390,"_id":42390,"syndicationId":4189,"name":"71A Woodhouse Hill","phone":"01484 533833","odsCode":"B85048","location":{"address":["Woodhouse Hill","Fartown","Huddersfield","Kirklees"],"postcode":"HD2 1DH","latitude":53.6668128967285,"longitude":-1.77135825157166}},{"choicesId":39624,"_id":39624,"syndicationId":44656,"name":"94 Burghley Road","phone":"01733 346085","odsCode":"Y02631","location":{"address":["94 Burghley Road","Peterborough","Peterborough","Cambridgeshire","England - Uk"],"postcode":"PE1 2QE","latitude":52.5810241699219,"longitude":-0.242599815130234}},{"choicesId":42765,"_id":42765,"syndicationId":44654,"name":"Blakenall Family Practice","phone":"01922 443729","odsCode":"Y02627","location":{"address":["Blakenall Village Centre","Thames Road","Blakenall","Walsall","West Midlands"],"postcode":"WS3 1LZ","latitude":52.6146774291992,"longitude":-1.9866943359375}},{"choicesId":35370,"_id":35370,"syndicationId":12195,"name":"Great Chesterford Surgery (Branch)","phone":"01799 530950","odsCode":"F81009","location":{"address":["School Street Surgery","School Street","Great Chesterford","Saffron Walden","Essex"],"postcode":"CB10 1NN","latitude":52.063606262207,"longitude":0.196785435080528}},{"choicesId":43403,"_id":43403,"syndicationId":5877,"name":"Dr Hart & Partners","phone":"01760 337394","odsCode":"D82068","location":{"address":["The Street","Marham","King's Lynn","Norfolk"],"postcode":"PE33 9HP","latitude":52.6595726013184,"longitude":0.52492481470108}},{"choicesId":35490,"_id":35490,"syndicationId":24716,"name":"141 Argyle Street","phone":"01706 366135","odsCode":"P86016","location":{"address":["141 Argyle Street","Heywood","Lancashire"],"postcode":"OL10 3SD","latitude":53.5873756408691,"longitude":-2.23932003974915}},{"choicesId":38497,"_id":38497,"syndicationId":44384,"name":"3D Medical Centre","phone":"01204 463246","odsCode":"Y00186","location":{"address":["200 Deane Road","Bolton","Lancs"],"postcode":"BL3 5DP","latitude":53.5730476379395,"longitude":-2.44384479522705}},{"choicesId":36620,"_id":36620,"syndicationId":4759,"name":"56 Melbourne St","phone":"0116 253 6299","odsCode":"C82031","location":{"address":["Melbourne street Surgery","56 Melbourne street","Leicester","Leicestershire"],"postcode":"LE2 0AS","latitude":52.636344909668,"longitude":-1.11437559127808}},{"choicesId":42516,"_id":42516,"syndicationId":11876,"name":"82 Lillie Road Surgery","phone":"020 7471 2650","odsCode":"E85008","location":{"address":["82 Lillie Road","Fulham","London"],"postcode":"SW6 1TN","latitude":51.4863967895508,"longitude":-0.199334859848022}},{"choicesId":40031,"_id":40031,"syndicationId":5725,"name":"96 Chesterton Road","phone":"01223 652202","odsCode":"D81054","location":{"address":["The Red House Surgery","96 Chesterton Road","Cambridge","Cambs"],"postcode":"CB4 1ER","latitude":52.2149047851563,"longitude":0.129175961017609}},{"choicesId":36931,"_id":36931,"syndicationId":17307,"name":"Croft Medical Centre","phone":"0121 270 7180","odsCode":"M89012","location":{"address":["Croft Medical centre","1 Pomeroy Way","Chelmsley Wood","Birmingham","West Midlands"],"postcode":"B37 7WB","latitude":52.4778633117676,"longitude":-1.72773551940918}},{"choicesId":41493,"_id":41493,"syndicationId":11442,"name":"Lea Vale Medical Group","phone":"01582 722525","odsCode":"E81032","location":{"address":["Liverpool Road Health Centre","9 Mersey Place","Liverpool Road","Luton","Bedfordshire"],"postcode":"LU1 1HH","latitude":51.8816261291504,"longitude":-0.42301407456398}},{"choicesId":38454,"_id":38454,"syndicationId":14326,"name":"1 Highdown Avenue","phone":"01903 265656","odsCode":"H82086","location":{"address":["Highdown Surgery","1 Highdown Avenue","Worthing","West Sussex"],"postcode":"BN13 1PU","latitude":50.8288764953613,"longitude":-0.393731474876404}},{"choicesId":36629,"_id":36629,"syndicationId":15773,"name":"233 Wells Road","phone":"0117 9770018","odsCode":"L81125","location":{"address":["Wells Road Surgery","233 Wells Road","Knowle","Bristol"],"postcode":"BS4 2DF","latitude":51.4385986328125,"longitude":-2.57265019416809}},{"choicesId":41504,"_id":41504,"syndicationId":15688,"name":"42 Abbotswood, Yate","phone":"01454 313577","odsCode":"L81046","location":{"address":["The Surgery","42 Abbotswood","Yate"],"postcode":"BS37 4NG","latitude":51.5295524597168,"longitude":-2.42435455322266}},{"choicesId":40768,"_id":40768,"syndicationId":5698,"name":"58 Green End Comberton","phone":"01223 262500","odsCode":"D81035","location":{"address":["58 Green End Comberton","Comberton","Cambridge","Cambridgeshire"],"postcode":"CB23 7DY","latitude":52.189811706543,"longitude":0.0186288226395845}},{"choicesId":38651,"_id":38651,"syndicationId":13257,"name":"85 Battle Road","phone":"01323 848485","odsCode":"G81685","location":{"address":["85 Battle Road","85 Battle Road","85 Battle Road","Hailsham"],"postcode":"BN27 1UA","latitude":50.8718223571777,"longitude":0.262096434831619}},{"choicesId":38444,"_id":38444,"syndicationId":14500,"name":"A Ditri","phone":"020 8644 2727","odsCode":"H85021","location":{"address":["Chesser Surgery","121 Wrythe Lane","Carshalton","Surrey"],"postcode":"SM5 2RT","latitude":51.374927520752,"longitude":-0.17728853225708}},{"choicesId":35761,"_id":35761,"syndicationId":12919,"name":"Alexandra Surgery","phone":"020 8888 2518","odsCode":"F85675","location":{"address":["125 Alexandra Park Road","125 Alexandra Park Road","Wood Green","London"],"postcode":"N22 7UN","latitude":51.5991859436035,"longitude":-0.136946976184845}},{"choicesId":45884,"_id":45884,"syndicationId":16872,"name":"All Saints Medical Center (MMP South)","phone":"0121 444 2005","odsCode":"M85003","location":{"address":["2a, Vicarage Road","Kings Heath"],"postcode":"B14 7RA","latitude":52.4321212768555,"longitude":-1.8951313495636}},{"choicesId":36179,"_id":36179,"syndicationId":17385,"name":"All Saints Surgery","phone":"01922 775135","odsCode":"M91650","location":{"address":["Field Road","Bloxwich","Walsall","West Midlands"],"postcode":"WS3 3JP","latitude":52.6131782531738,"longitude":-2.00078415870667}},{"choicesId":107382,"_id":107382,"syndicationId":3359282,"name":"Allendale Health Centre","odsCode":"A84045","location":{"address":["Shilburn Road","Allendale"],"postcode":"NE47 9LG","latitude":54.8975601196289,"longitude":-2.24904465675354}},{"choicesId":41696,"_id":41696,"syndicationId":14847,"name":"Alma Road Surgery","phone":"01794 513422","odsCode":"J82074","location":{"address":["Alma Road","Romsey","Hampshire"],"postcode":"SO51 8ED","latitude":50.9906005859375,"longitude":-1.49380576610565}},{"choicesId":44332,"_id":44332,"syndicationId":15775,"name":"Almondsbury Surgery","phone":"01454 613266","odsCode":"L81127","location":{"address":["The Surgery","Haw Lane","Olveston","Bristol"],"postcode":"BS35 4EG","latitude":51.5800971984863,"longitude":-2.5741822719574}},{"choicesId":39311,"_id":39311,"syndicationId":14897,"name":"Alresford Group Surgery","phone":"01962 732345","odsCode":"J82124","location":{"address":["Alresford Group Surgery","Station Road","Alresford","Hampshire"],"postcode":"SO24 9JL","latitude":51.0889434814453,"longitude":-1.16154849529266}},{"choicesId":40763,"_id":40763,"syndicationId":24519,"name":"AL-FAL MEDICAL GROUP","phone":"01204 463330","odsCode":"P82640","location":{"address":["Deane Road","Bolton","Lancs","BOLTON","Lancashire"],"postcode":"BL3 5HP","latitude":53.5727310180664,"longitude":-2.44633316993713}},{"choicesId":43939,"_id":43939,"syndicationId":13653,"name":"All Saints Medical Centre","phone":"020 88543964","odsCode":"G83030","location":{"address":["All Saints Medical Centre","13a Ripon Road","Plumstead","London"],"postcode":"SE18 3PS","latitude":51.4794273376465,"longitude":0.0664151608943939}},{"choicesId":37406,"_id":37406,"syndicationId":17422,"name":"All Saints Surgery","phone":"01902 457617","odsCode":"M92035","location":{"address":["17 Cartwright Street","Wolverhampton"],"postcode":"WV2 1EU","latitude":52.5772285461426,"longitude":-2.12251091003418}},{"choicesId":44693,"_id":44693,"syndicationId":12815,"name":"Allerton Road Medical Centre","phone":"02088022882","odsCode":"F84716","location":{"address":["34a Allerton Road","Stoke Newington","London"],"postcode":"N16 5UF","latitude":51.5657234191895,"longitude":-0.0903686657547951}},{"choicesId":38396,"_id":38396,"syndicationId":3095,"name":"Alma Street Medical Centre","phone":"01642 607248","odsCode":"A81067","location":{"address":["Nolan Place","Stockton-on-Tees","Cleveland"],"postcode":"TS18 2BP","latitude":54.5694923400879,"longitude":-1.31763291358948}},{"choicesId":42043,"_id":42043,"syndicationId":11831,"name":"Alperton Medical Centre","phone":"020 8903 2379","odsCode":"E84638","location":{"address":["32,Stanley Avenue,","32 Stanley Avenue","Wembley","Wembley","Middlesex"],"postcode":"HA0 4JB","latitude":51.5428771972656,"longitude":-0.294204324483871}},{"choicesId":38013,"_id":38013,"syndicationId":16604,"name":"Alrewas Surgery","phone":"01283 790316","odsCode":"M83035","location":{"address":["Exchange Road","Alrewas","Burton-on-Trent","Staffordshire"],"postcode":"DE13 7AS","latitude":52.7330856323242,"longitude":-1.74538695812225}},{"choicesId":41118,"_id":41118,"syndicationId":5934,"name":"Alexandra Road Surgery","phone":"01502 526062","odsCode":"D83002","location":{"address":["Alexandra Road","Lowestoft"],"postcode":"NR32 1PL","latitude":52.4802284240723,"longitude":1.75273501873016}},{"choicesId":119166,"_id":119166,"syndicationId":5480448,"name":"All Saints & Rosevillas Medical Practice","phone":"01902 491888","odsCode":"M92035","location":{"address":["1 Shale Street","Bilston"],"postcode":"WV14 0HF","latitude":52.5661506652832,"longitude":-2.08285355567932}},{"choicesId":35861,"_id":35861,"syndicationId":16737,"name":"All Saints Road Surgery","phone":"01283 510768","odsCode":"M83681","location":{"address":["28 All Saints Road","Burton-on-Trent","Staffs"],"postcode":"DE14 3LS","latitude":52.7943687438965,"longitude":-1.64357709884644}},{"choicesId":43338,"_id":43338,"syndicationId":4558,"name":"ALLEN GR","phone":"01332 340850","odsCode":"C81019","location":{"address":["31 Humbleton Drive","Derby","Derbyshire"],"postcode":"DE22 4AU","latitude":52.9231796264648,"longitude":-1.51933360099792}},{"choicesId":36046,"_id":36046,"syndicationId":17878,"name":"ALLPORT MEDICAL CENTRE","phone":"0151 328 5630","odsCode":"N85003","location":{"address":["43 Bridle Road","Bromborough","Wirral"],"postcode":"CH62 6EE","latitude":53.3222885131836,"longitude":-2.97187781333923}},{"choicesId":39780,"_id":39780,"syndicationId":15774,"name":"Almondsbury Surgery","phone":"01454 613161","odsCode":"L81127","location":{"address":["Almondsbury Surgery","Sundays Hill","Almondsbury","Bristol"],"postcode":"BS32 4DS","latitude":51.5535507202148,"longitude":-2.57351613044739}},{"choicesId":38516,"_id":38516,"syndicationId":4843,"name":"Alpine House Surgery","phone":"0116 216 9947","odsCode":"C82095","location":{"address":["Alpine House Surgery","86 Rothley Road, Mountsorrel","Loughborough","Leics"],"postcode":"LE12 7JU","latitude":52.7248649597168,"longitude":-1.1396062374115}},{"choicesId":41097,"_id":41097,"syndicationId":3125,"name":"Alston Medical Practice","phone":"01434 381214","odsCode":"A82004","location":{"address":["Overwater","Nenthead","Cumbria"],"postcode":"CA9 3NT","latitude":54.7868843078613,"longitude":-2.34415125846863}},{"choicesId":44499,"_id":44499,"syndicationId":24670,"name":"Alexandra Group Medical Practice","phone":"0161 622 9210","odsCode":"P85015","location":{"address":["Alexandra Group Medical Practice","Glodwick Primary Care Centre","137 Glodwick Road","Oldham"],"postcode":"OL4 1YN","latitude":53.5377883911133,"longitude":-2.09508013725281}},{"choicesId":113073,"_id":113073,"syndicationId":4952797,"name":"Alfriston","odsCode":"G81099","location":{"address":["The Furlongs","Alfriston"],"postcode":"BN26 5XT","latitude":50.8092269897461,"longitude":0.152170181274414}},{"choicesId":41039,"_id":41039,"syndicationId":12807,"name":"ALL SAINTS PRACTICE","phone":"020 7093 3895","odsCode":"F84702","location":{"address":["21 Newby Place","Poplar","London"],"postcode":"E14 0EY","latitude":51.5104751586914,"longitude":-0.0126104773953557}},{"choicesId":36469,"_id":36469,"syndicationId":4557,"name":"ALLEN GR","phone":"01332 737777","odsCode":"C81019","location":{"address":["3 Burton Road","Derby","Derbyshire"],"postcode":"DE1 1TH","latitude":52.9171485900879,"longitude":-1.47868049144745}},{"choicesId":42433,"_id":42433,"syndicationId":17138,"name":"ALLESLEY VILLAGE SURGERY","phone":"024 76 402332","odsCode":"M86039","location":{"address":["163 Birmingham Road","Allesley","Coventry","W Midlands"],"postcode":"CV5 9BD","latitude":52.4246978759766,"longitude":-1.56841731071472}},{"choicesId":44854,"_id":44854,"syndicationId":5749,"name":"Almond Road Surgery","phone":"01480 473413","odsCode":"D81082","location":{"address":["Almond Road","St.Neots","Cambridgeshire"],"postcode":"PE19 1DZ","latitude":52.232234954834,"longitude":-0.262280166149139}},{"choicesId":39230,"_id":39230,"syndicationId":16985,"name":"Alpha Medical Practice","phone":"01213287010","odsCode":"M85139","location":{"address":["38 Alum Rock Road","Alum Rock","Birmingham","Birmingham"],"postcode":"B8 1JA","latitude":52.4907112121582,"longitude":-1.85602283477783}},{"choicesId":37160,"_id":37160,"syndicationId":24641,"name":"Al-Shifa Medical Centre","phone":"0844 387 8505","odsCode":"P84665","location":{"address":["6 Copson Street","Withington","Manchester"],"postcode":"M20 3HE","latitude":53.433708190918,"longitude":-2.22967982292175}},{"choicesId":41272,"_id":41272,"syndicationId":14533,"name":"A Kumar","phone":"020 86731776","odsCode":"H85056","location":{"address":["143-145 Balham Hill","Balham","London"],"postcode":"SW12 9DL","latitude":51.4488334655762,"longitude":-0.147822931408882}},{"choicesId":39771,"_id":39771,"syndicationId":24416,"name":"Abbey Dale Medical Centre","phone":"01253 696696","odsCode":"P81714","location":{"address":["Abbey-Dale Medical Centre","50 Common Edge Road","Blackpool","Lancashire"],"postcode":"FY4 5AU","latitude":53.7883453369141,"longitude":-3.02436304092407}},{"choicesId":36510,"_id":36510,"syndicationId":4323,"name":"Abbey Grange Medical Practice 3","phone":"0113 2951855","odsCode":"B86068","location":{"address":["Holt Park Medical Centre","Holt Road","Leeds","Leeds"],"postcode":"LS16 7QD","latitude":53.8570213317871,"longitude":-1.59974002838135}},{"choicesId":39435,"_id":39435,"syndicationId":15071,"name":"Abbey Meads Medical Group","phone":"01793 706030","odsCode":"J83035","location":{"address":["Abbey Meads Medical Practice","Abbey Meads Village Centre","Elstree Way","Swindon Wiltshire"],"postcode":"SN25 4YZ","latitude":51.597827911377,"longitude":-1.79277980327606}},{"choicesId":37301,"_id":37301,"syndicationId":12575,"name":"Abbey Medical Centre Barking","phone":"020 8090 8106","odsCode":"F82625","location":{"address":["1 Harpour Road","Barking","Essex"],"postcode":"IG11 8RJ","latitude":51.5413856506348,"longitude":0.0792968273162842}},{"choicesId":42579,"_id":42579,"syndicationId":15451,"name":"Abbey Medical Practice - Earls Barton Branch Surgery","phone":"01604 810691","odsCode":"K83047","location":{"address":["6 Broad Street","Northampton","Earls Barton","Northants"],"postcode":"NN6 0ND","latitude":52.2643737792969,"longitude":-0.750608384609222}},{"choicesId":42337,"_id":42337,"syndicationId":11558,"name":"Abbey Road Surgery","phone":"01992 654004","odsCode":"E82042","location":{"address":["Abbey Road Surgery","63 Abbey Road","Waltham Cross","Hertfordshire"],"postcode":"EN8 7LJ","latitude":51.6844177246094,"longitude":-0.0300872288644314}},{"choicesId":44211,"_id":44211,"syndicationId":16711,"name":"Abbey Surgery","phone":"01782 542671","odsCode":"M83625","location":{"address":["DR V.S.R Chadalavada and Partners , Abbey Surgery","77 Woodhead Road","Abbey Hulton","Stoke-on-Trent","Staffordshire"],"postcode":"ST2 8DH","latitude":53.0416030883789,"longitude":-2.13912868499756}},{"choicesId":35294,"_id":35294,"syndicationId":14530,"name":"A Hafeez","phone":"020 86611505","odsCode":"H85053","location":{"address":["Sutton Medical Practice","181 Carshalton Road","Sutton","Surrey"],"postcode":"SM1 4NG","latitude":51.3632774353027,"longitude":-0.176889270544052}},{"choicesId":42443,"_id":42443,"syndicationId":3105,"name":"A&B Medical Practice","phone":"01642 676 906","odsCode":"A81609","location":{"address":["Tennant Street","Endurance House","Clarence Street","Stockton On Tees"],"postcode":"TS18 2EP","latitude":54.5721130371094,"longitude":-1.31257724761963}},{"choicesId":42718,"_id":42718,"syndicationId":4320,"name":"Abbey Grange Medical Practice 2","phone":"0113 2954880","odsCode":"B86065","location":{"address":["Moor Grange Surgery","60 Moor Grange View","Leeds","Yorkshire"],"postcode":"LS16 5BJ","latitude":53.8342514038086,"longitude":-1.60409009456635}},{"choicesId":43139,"_id":43139,"syndicationId":44385,"name":"Abbey Manor Medical Practice","phone":"01935 404820","odsCode":"Y00189","location":{"address":["Abbey Manor Park","Yeovil","Somerset","England - Uk"],"postcode":"BA21 3TL","latitude":50.9498901367188,"longitude":-2.66450548171997}},{"choicesId":43348,"_id":43348,"syndicationId":16818,"name":"Abbey Medical Centre","phone":"01926 859955","odsCode":"M84036","location":{"address":["42 Station Road","Kenilworth","Warwickshire"],"postcode":"CV8 1JD","latitude":52.3429679870605,"longitude":-1.57744777202606}},{"choicesId":44824,"_id":44824,"syndicationId":4979,"name":"Abbey Medical Practice","phone":"01522 530334","odsCode":"C83051","location":{"address":["95 Monks Road","Lincoln"],"postcode":"LN2 5HR","latitude":53.2305755615234,"longitude":-0.530795156955719}},{"choicesId":36804,"_id":36804,"syndicationId":17359,"name":"A S KHAN","phone":"01922 775194","odsCode":"M91602","location":{"address":["Field Road","Bloxwich","Walsall","West Midlands"],"postcode":"WS3 3JP","latitude":52.6131782531738,"longitude":-2.00078415870667}},{"choicesId":38900,"_id":38900,"syndicationId":12298,"name":"Abbey Field Medical Centre","phone":"01206 517100","odsCode":"F81095","location":{"address":["Abbey Field Medical Centre","Ypres Road","Colchester","Essex","Essex"],"postcode":"CO2 7UW","latitude":51.8774871826172,"longitude":0.898589789867401}},{"choicesId":42230,"_id":42230,"syndicationId":15432,"name":"Abbey House Medical Practice","phone":"01327 877770","odsCode":"K83032","location":{"address":["Golding Close","Daventry","Northants"],"postcode":"NN11 4FE","latitude":52.2603225708008,"longitude":-1.16071033477783}},{"choicesId":43998,"_id":43998,"syndicationId":15072,"name":"Abbey Meads Medical Group","phone":"01793 725113","odsCode":"J83035","location":{"address":["Crossroads Surgery","478 Cricklade Road","Swindon","Wiltshire"],"postcode":"SN2 7BG","latitude":51.5842742919922,"longitude":-1.77495920658112}},{"choicesId":38512,"_id":38512,"syndicationId":16469,"name":"Abbey Medical Practice","phone":"01386 761111","odsCode":"M81094","location":{"address":["Abbey Medical Practice","Evesham Medical Centre","Abbey Lane Evesham","Evesham","Worcestershire"],"postcode":"WR11 4BS","latitude":52.0910453796387,"longitude":-1.95100045204163}},{"choicesId":124521,"_id":124521,"syndicationId":6701912,"name":"Abbey Road","odsCode":"L83118","location":{"address":["56 Abbey Road","Torquay"],"postcode":"TQ2 5NH","latitude":50.4653205871582,"longitude":-3.52977252006531}},{"choicesId":37402,"_id":37402,"syndicationId":16065,"name":"Abbey Road Surgery","phone":"01803 290000","odsCode":"L83108","location":{"address":["56 Abbey Road","Torquay"],"postcode":"TQ2 5NH","latitude":50.4653205871582,"longitude":-3.52977252006531}},{"choicesId":36504,"_id":36504,"syndicationId":3133,"name":"ABBEY ROAD SURGERY","phone":"01229 821599","odsCode":"A82010","location":{"address":["243 Abbey Road","Barrow in Furness"],"postcode":"LA14 5JY","latitude":54.1242980957031,"longitude":-3.21667671203613}},{"choicesId":42938,"_id":42938,"syndicationId":16056,"name":"Abbey Surgery","phone":"01822 612247","odsCode":"L83101","location":{"address":["28 Plymouth Road","Tavistock","Devon"],"postcode":"PL19 8BU","latitude":50.5469131469727,"longitude":-4.15038824081421}},{"choicesId":42255,"_id":42255,"syndicationId":17376,"name":"A S Suri & Partners","phone":"01922 614896","odsCode":"M91629","location":{"address":["Birchills Health Centre","23-37 Old Birchills","Birchills","Walsall","West Midlands"],"postcode":"WS2 8QH","latitude":52.5911254882813,"longitude":-1.99539577960968}},{"choicesId":43705,"_id":43705,"syndicationId":4324,"name":"Abbey Grange Medical Practice 1","phone":"0113 2951844","odsCode":"B86068","location":{"address":["The Abbey Medical Centre","Norman Street","Leeds","Leeds"],"postcode":"LS5 3JN","latitude":53.8183059692383,"longitude":-1.60156691074371}},{"choicesId":39336,"_id":39336,"syndicationId":5457,"name":"Abbey Lane Surgery","phone":"0114 2740017","odsCode":"C88046","location":{"address":["23 Abbey Lane","Sheffield"],"postcode":"S8 0BJ","latitude":53.3390769958496,"longitude":-1.48310363292694}},{"choicesId":35531,"_id":35531,"syndicationId":15070,"name":"Abbey Meads Medical Group","phone":"01793 723130","odsCode":"J83035","location":{"address":["Penhill Surgery","257 Penhill Drive","Swindon","Wiltshire"],"postcode":"SN2 5HN","latitude":51.5956039428711,"longitude":-1.78072118759155}},{"choicesId":40082,"_id":40082,"syndicationId":15450,"name":"Abbey Medical Practice","phone":"01933 233200","odsCode":"K83047","location":{"address":["Mannock Medical Centre","Irtlingborough Road","Wellingborough","Northants"],"postcode":"NN8 1LT","latitude":52.2980575561523,"longitude":-0.677672147750854}},{"choicesId":38123,"_id":38123,"syndicationId":12753,"name":"Abbey Road Medical Practice","phone":"020 8534 2515","odsCode":"F84111","location":{"address":["28a Abbey Road","South West Newham","Stratford","Newham"],"postcode":"E15 3LT","latitude":51.534782409668,"longitude":0.00589524442330003}},{"choicesId":45831,"_id":45831,"syndicationId":16057,"name":"Abbey Surgery","phone":"01822612247","odsCode":"L83101","location":{"address":["Station Road","Bere Alston"],"postcode":"PL20 7EJ","latitude":50.480525970459,"longitude":-4.19132375717163}},{"choicesId":44984,"_id":44984,"syndicationId":4308,"name":"Ashfield Medical Centre, Dr Eastwood & Partners","phone":"0113 2951828","odsCode":"B86055","location":{"address":["15 Austhorpe Road","Crossgates","Leeds","Leeds"],"postcode":"LS15 8BA","latitude":53.8074569702148,"longitude":-1.44933021068573}},{"choicesId":38935,"_id":38935,"syndicationId":12468,"name":"Ashingdon Medical centre","phone":"01702 414970","odsCode":"F81690","location":{"address":["Ashingdon Medical Centre","57 Lascelles Gardens","Rochford","Essex"],"postcode":"SS4 3BW","latitude":51.6007461547852,"longitude":0.690233051776886}},{"choicesId":35745,"_id":35745,"syndicationId":44627,"name":"Ashton Gp Service","phone":"0161 3427050","odsCode":"Y02586","location":{"address":["Ashton Primary Care Centre","Old Street","St Peterfield","Ashton Under Lyne"],"postcode":"OL6 7ST","latitude":53.4860305786133,"longitude":-2.10010290145874}},{"choicesId":41466,"_id":41466,"syndicationId":12016,"name":"Ashville Surgery","phone":"020 7371 7171","odsCode":"E85719","location":{"address":["Ashville Surgery","Swan House","Parsons Green Lane","Fulham"],"postcode":"SW6 4HS","latitude":51.4762573242188,"longitude":-0.201131135225296}},{"choicesId":44565,"_id":44565,"syndicationId":3189,"name":"Aspatria Medical Group","phone":"016973 20209","odsCode":"A82055","location":{"address":["West Street Health Centre","West Street","Aspatria","Wigton","Cumbria"],"postcode":"CA7 3HH","latitude":54.7621269226074,"longitude":-3.33797740936279}},{"choicesId":39634,"_id":39634,"syndicationId":4874,"name":"Asquith Surgery","phone":"0116 323 2000","odsCode":"C82614","location":{"address":["693 Welford Road","Leicester","Leics","Leicester"],"postcode":"LE2 6FQ","latitude":52.601490020752,"longitude":-1.11710131168365}},{"choicesId":44226,"_id":44226,"syndicationId":14885,"name":"Atherley House Surgery","phone":"023 80221964","odsCode":"J82115","location":{"address":["Atherley House Surgery","143-145 Shirley Road","Shirley Southampton","Hampshire"],"postcode":"SO15 3FH","latitude":50.9133415222168,"longitude":-1.42155885696411}},{"choicesId":42553,"_id":42553,"syndicationId":11645,"name":"Attenborough Surgery","phone":"01923 231633","odsCode":"E82124","location":{"address":["Attenborough Surgery","Bushey Health Centre, London Road","Bushey","Herts"],"postcode":"WD23 2NN","latitude":51.6459884643555,"longitude":-0.374573707580566}},{"choicesId":42772,"_id":42772,"syndicationId":44683,"name":"Ashford Health Centre","phone":"01784 884000","odsCode":"Y02688","location":{"address":["Ashford Hospital, London Road","Ashford","Middlesex","England - UK"],"postcode":"TW15 3FE","latitude":51.4446220397949,"longitude":-0.472001224756241}},{"choicesId":37446,"_id":37446,"syndicationId":14131,"name":"Ashley Centre Surgery","phone":"01372 722707/723668","odsCode":"H81071","location":{"address":["Ashley Centre Surgery","Ashley Square","Epsom","Surrey"],"postcode":"KT18 5DD","latitude":51.3324432373047,"longitude":-0.270071297883987}},{"choicesId":43489,"_id":43489,"syndicationId":24356,"name":"Ashurst Primary Care","phone":"01695 736110","odsCode":"P81201","location":{"address":["Ashurst Health Centre","Lulworth","Ashurst","Skelmersdale"],"postcode":"WN8 6QS","latitude":53.5632133483887,"longitude":-2.77270865440369}},{"choicesId":35179,"_id":35179,"syndicationId":5715,"name":"Ashwell Surgery","phone":"01462417377","odsCode":"D81047","location":{"address":["Gardiners Lane","Ashwell","Baldock","Herts"],"postcode":"SG7 5PY","latitude":52.0423965454102,"longitude":-0.156309992074966}},{"choicesId":35230,"_id":35230,"syndicationId":11840,"name":"Aspri Medical Centre Dr KARIA & partners","phone":"020 8427 9623","odsCode":"E84658","location":{"address":["Aspri Medical Centre","1 Long Elmes","Harrow, Weald","Middlesex"],"postcode":"HA3 5LE","latitude":51.6044731140137,"longitude":-0.342987865209579}},{"choicesId":35909,"_id":35909,"syndicationId":4605,"name":"Aston Surgery","phone":"01332 792888","odsCode":"C81047","location":{"address":["8 Bell Avenue","Aston-on-Trent","Derby","Derbyshire"],"postcode":"DE72 2BE","latitude":52.8605117797852,"longitude":-1.39160907268524}},{"choicesId":39882,"_id":39882,"syndicationId":3193,"name":"Atkinson Health Centre","phone":"01229 822205","odsCode":"A82062","location":{"address":["Market Street","Barrow In Furness","Barrow-in-Furness"],"postcode":"LA14 2LR","latitude":54.1102867126465,"longitude":-3.22880053520203}},{"choicesId":37752,"_id":37752,"syndicationId":12467,"name":"Ashingdon Medical Centre","phone":"01702 232157","odsCode":"F81690","location":{"address":["Dome Caravan Park","Lower Road, Hullbridge","Hockley","Essex"],"postcode":"SS5 5LU","latitude":51.6192893981934,"longitude":0.650775909423828}},{"choicesId":42206,"_id":42206,"syndicationId":4695,"name":"ASHOVER MEDICAL CENTRE","phone":"01246 590711","odsCode":"C81611","location":{"address":["Milken Lane","Ashover","Chesterfield"],"postcode":"S45 0BA","latitude":53.1665267944336,"longitude":-1.47104287147522}},{"choicesId":39757,"_id":39757,"syndicationId":5234,"name":"Ashville Medical Practice","phone":"01226 729860","odsCode":"C85003","location":{"address":["Thornton Road","Kendray","Barnsley","South Yorkshire"],"postcode":"S70 3NE","latitude":53.5430755615234,"longitude":-1.45688557624817}},{"choicesId":40970,"_id":40970,"syndicationId":24706,"name":"Ashworth Street Surgery","phone":"01706 346767","odsCode":"P86006","location":{"address":["Ashworth Street Surgery","85 Spotland Road","Rochdale"],"postcode":"OL12 6RT","latitude":53.6195678710938,"longitude":-2.16563701629639}},{"choicesId":41289,"_id":41289,"syndicationId":24946,"name":"Aspull Surgery","phone":"01942 831263","odsCode":"P92015","location":{"address":["Haigh Road","Aspull","Wigan","Lancs"],"postcode":"WN2 1XH","latitude":53.5696029663086,"longitude":-2.58602094650269}},{"choicesId":36824,"_id":36824,"syndicationId":12730,"name":"ATHENA MEDICAL CENTRE","phone":"020 8985-6675","odsCode":"F84060","location":{"address":["21 Atherden Road","London"],"postcode":"E5 0QP","latitude":51.5549430847168,"longitude":-0.0532421953976154}},{"choicesId":43368,"_id":43368,"syndicationId":14713,"name":"Atrium Health Centre","phone":"01305 251545","odsCode":"J81068","location":{"address":["Atrium Health Centre","7 Weymouth Avenue","Dorchester","Dorset"],"postcode":"DT1 1QR","latitude":50.7108459472656,"longitude":-2.43830561637878}},{"choicesId":37546,"_id":37546,"syndicationId":17521,"name":"Ashfields Primary Care Centre","phone":"01270 275050","odsCode":"N81032","location":{"address":["Middlewich Road","Sandbach","Cheshire"],"postcode":"CW11 1EQ","latitude":53.144645690918,"longitude":-2.36738157272339}},{"choicesId":35755,"_id":35755,"syndicationId":15073,"name":"Ashington House","phone":"01793 614840","odsCode":"J83036","location":{"address":["Ashington House","Ashington Way","Westlea","Swindon Wiltshire","Wiltshire"],"postcode":"SN5 7XY","latitude":51.5574760437012,"longitude":-1.82660055160522}},{"choicesId":37923,"_id":37923,"syndicationId":24965,"name":"Ashton Medical Centre","phone":"01942 727325","odsCode":"P92041","location":{"address":["120 Wigan Road","Ashton In Makerfield","Wigan","Lancs"],"postcode":"WN4 9SU","latitude":53.4947967529297,"longitude":-2.64284086227417}},{"choicesId":39469,"_id":39469,"syndicationId":24583,"name":"Ashville Surgery","phone":"0161 881 4293","odsCode":"P84038","location":{"address":["171 Upper Chorlton Road","Whalley Range","Manchester","Lancashire"],"postcode":"M16 9RT","latitude":53.452522277832,"longitude":-2.26802968978882}},{"choicesId":36972,"_id":36972,"syndicationId":5129,"name":"Aspley Medical Centre","phone":"0115 9292700","odsCode":"C84091","location":{"address":["Aspley Medical Centre","509 Aspley Lane","Aspley","Nottingham"],"postcode":"NG8 5RU","latitude":52.9719467163086,"longitude":-1.20417606830597}},{"choicesId":44827,"_id":44827,"syndicationId":24986,"name":"Astley General Practice","phone":"01942 876339","odsCode":"P92637","location":{"address":["391a Manchester Road","Astley","Tyldesley","Manchester"],"postcode":"M29 7BY","latitude":53.5004196166992,"longitude":-2.45825123786926}},{"choicesId":38867,"_id":38867,"syndicationId":16798,"name":"Atherstone Surgery","phone":"01827 713664","odsCode":"M84019","location":{"address":["1 Ratcliffe Road","Atherstone","Warks"],"postcode":"CV9 1EU","latitude":52.5784912109375,"longitude":-1.54235351085663}},{"choicesId":41906,"_id":41906,"syndicationId":11669,"name":"Attenborough Surgery Prestwick Road Branch","phone":"020 8428 0608","odsCode":"E82653","location":{"address":["305 Prestwick Road","South Oxhey","Watford","Hertfordshire"],"postcode":"WD19 6UT","latitude":51.6167373657227,"longitude":-0.394295454025269}},{"choicesId":42864,"_id":42864,"syndicationId":16860,"name":"Arden Medical Centre","phone":"01789 414942","odsCode":"M84617","location":{"address":["Albany Road","Stratford-Upon-Avon","Warwickshire"],"postcode":"CV37 6PG","latitude":52.1909637451172,"longitude":-1.71393978595734}},{"choicesId":38306,"_id":38306,"syndicationId":44397,"name":"Arlesey Medical Centre","phone":"01462 732144","odsCode":"Y00260","location":{"address":["High Street","The High Street","Arlesey","Bedfordshire"],"postcode":"SG15 6SN","latitude":52.0118713378906,"longitude":-0.262212753295898}},{"choicesId":35533,"_id":35533,"syndicationId":12933,"name":"Arnos Grove Medical Centre","phone":"020 8368 4455","odsCode":"F85700","location":{"address":["Arnos Grove Medical Centre","269 Bowes Road","New Southgate","London","Middlesex"],"postcode":"N11 1BD","latitude":51.6154747009277,"longitude":-0.129823371767998}},{"choicesId":41872,"_id":41872,"syndicationId":14315,"name":"Arun Medical Centre","phone":"01903 783459","odsCode":"H82069","location":{"address":["Newhurdles Doctors Surgery","59 Sea Road","East Preston","West Sussex"],"postcode":"BN16 1LN","latitude":50.8078155517578,"longitude":-0.480280667543411}},{"choicesId":38892,"_id":38892,"syndicationId":24215,"name":"Ash Trees","phone":"01524 720000","odsCode":"P81029","location":{"address":["Ash Trees Surgery","Market Street","Carnforth","Lancashire"],"postcode":"LA5 9JU","latitude":54.1291160583496,"longitude":-2.76909780502319}},{"choicesId":42499,"_id":42499,"syndicationId":14381,"name":"ASHBURTON PARK MEDICAL PRACTICE","phone":"020 3714 6868","odsCode":"H83033","location":{"address":["416 Lower Addiscombe Road","Croydon","Surrey"],"postcode":"CR0 7AG","latitude":51.384147644043,"longitude":-0.0642069056630135}},{"choicesId":39015,"_id":39015,"syndicationId":13129,"name":"Ashdown Forest Health Centre","phone":"01342 822131","odsCode":"G81024","location":{"address":["Ashdown Forest Health Centre","Lewes Road","Forest Row","East Sussex"],"postcode":"RH18 5AQ","latitude":51.0970344543457,"longitude":0.032880175858736}},{"choicesId":42897,"_id":42897,"syndicationId":15355,"name":"Ashfield Medical Centre","phone":"01908 679111","odsCode":"K82054","location":{"address":["1 Perrydown","Wastel Bean Hill","Milton Keynes","Bucks"],"postcode":"MK6 4NH","latitude":52.0196685791016,"longitude":-0.738272786140442}},{"choicesId":35665,"_id":35665,"syndicationId":4703,"name":"Arden House Medical Practice Sett","phone":"01663 745266","odsCode":"C81634","location":{"address":["Sett Close","New Mills","High Peak","Derbyshire"],"postcode":"SK22 4AQ","latitude":53.3664245605469,"longitude":-2.00236535072327}},{"choicesId":35537,"_id":35537,"syndicationId":15140,"name":"Argyll House Surgery","phone":"01983 562955","odsCode":"J84008","location":{"address":["Argyll House","West Street","Ryde","Isle Of Wight"],"postcode":"PO33 2QG","latitude":50.7269172668457,"longitude":-1.16597080230713}},{"choicesId":35613,"_id":35613,"syndicationId":24269,"name":"Arnold Medical Centre","phone":"01253 951950","odsCode":"P81081","location":{"address":["The Arnold Medical Centre","204 St Annes Road","Blackpool","Lancashire"],"postcode":"FY4 2EF","latitude":53.7896842956543,"longitude":-3.0380117893219}},{"choicesId":42034,"_id":42034,"syndicationId":13838,"name":"Artesian Health Centre ( Main Site Decima Street)","phone":"020 7403 3618","odsCode":"G85094","location":{"address":["138 Grange Road","London","London"],"postcode":"SE1 3GF","latitude":51.4939765930176,"longitude":-0.0747703462839127}},{"choicesId":101283,"_id":101283,"syndicationId":2026768,"name":"Ash Tree Medical Centre","odsCode":"M85600","location":{"address":["1536 Pershore Road","Stirchley, Birmingham"],"postcode":"B30 2NW","latitude":52.4242477416992,"longitude":-1.92138457298279}},{"choicesId":37472,"_id":37472,"syndicationId":3604,"name":"Ashburn Medical Centre","phone":"0191 567 1035","odsCode":"A89018","location":{"address":["74-75 Toward Road","Sunderland","Tyne and Wear"],"postcode":"SR2 8JG","latitude":54.8951721191406,"longitude":-1.37400913238525}},{"choicesId":40024,"_id":40024,"syndicationId":15362,"name":"Ashcroft Surgery","phone":"01296 688201","odsCode":"K82061","location":{"address":["Stewkley Road","Wing"],"postcode":"LU7 0NE","latitude":51.8980293273926,"longitude":-0.716204643249512}},{"choicesId":40198,"_id":40198,"syndicationId":17324,"name":"Arden Medical Centre","phone":"01564 739194","odsCode":"M89030","location":{"address":["Downing Close","Station Road","Solihull","W Midlands"],"postcode":"B93 0QA","latitude":52.3798027038574,"longitude":-1.74474799633026}},{"choicesId":39567,"_id":39567,"syndicationId":16020,"name":"Armada Surgery","phone":"01752428398","odsCode":"L83080","location":{"address":["Oxford Place","Western Approach","Plymouth","Devon"],"postcode":"PL1 5AJ","latitude":50.3747024536133,"longitude":-4.14488220214844}},{"choicesId":35353,"_id":35353,"syndicationId":17308,"name":"Arran Medical Centre","phone":"0121 770 4043","odsCode":"M89013","location":{"address":["Mull Croft","Birmingham","West Midlands"],"postcode":"B36 0PU","latitude":52.5013847351074,"longitude":-1.74540042877197}},{"choicesId":36311,"_id":36311,"syndicationId":14252,"name":"Arundel Surgery","phone":"01903 882191","odsCode":"H82021","location":{"address":["The Surgery","Green Lane Close","Arundel","West Sussex"],"postcode":"BN18 9HG","latitude":50.8528823852539,"longitude":-0.567254185676575}},{"choicesId":42570,"_id":42570,"syndicationId":3203,"name":"Ash Trees Surgery - Arnside","phone":"01524 761311","odsCode":"A82074","location":{"address":["Orchard Rd","Orchard Road","Arnside","Arnside"],"postcode":"LA5 0DP","latitude":54.2002449035645,"longitude":-2.83289837837219}},{"choicesId":38426,"_id":38426,"syndicationId":3721,"name":"Ashby Turn Primary Care Centre","phone":"01724 842051","odsCode":"B81045","location":{"address":["The Link","Scunthorpe","North Lincolnshire"],"postcode":"DN16 2UT","latitude":53.5661468505859,"longitude":-0.654184758663177}},{"choicesId":36335,"_id":36335,"syndicationId":5112,"name":"Ashfield House","phone":"01623 752295","odsCode":"C84067","location":{"address":["Ashfield House194 Forest Road","Kirkby-In-Ashfield","Nottingham","Notts"],"postcode":"NG17 9JB","latitude":53.0765113830566,"longitude":-1.25603234767914}},{"choicesId":41356,"_id":41356,"syndicationId":12241,"name":"Ardleigh Surgery","phone":"01206 230224","odsCode":"F81044","location":{"address":["Dedham Road","Ardleigh","Colchester","Essex"],"postcode":"CO7 7LD","latitude":51.9270706176758,"longitude":0.985110878944397}},{"choicesId":42436,"_id":42436,"syndicationId":16564,"name":"Armitage Surgery","phone":"01543 490444","odsCode":"M83001","location":{"address":["Shropshire Brook Road","Armitage","Staffordshire"],"postcode":"WS15 4UZ","latitude":52.7381362915039,"longitude":-1.87283551692963}},{"choicesId":44524,"_id":44524,"syndicationId":24626,"name":"Artane Medical Centre","phone":"0161 740 2785","odsCode":"P84631","location":{"address":["1 Middleton Road","Higher Crumpsall","Manchester"],"postcode":"M8 5DT","latitude":53.5171890258789,"longitude":-2.24911880493164}},{"choicesId":39692,"_id":39692,"syndicationId":24308,"name":"Ash Tree House Surgery","phone":"01772 686688","odsCode":"P81129","location":{"address":["Ash Tree House","Church Street","Kirkham","Preston"],"postcode":"PR4 2SE","latitude":53.7834815979004,"longitude":-2.87124347686768}},{"choicesId":44063,"_id":44063,"syndicationId":3204,"name":"Ash Trees Surgery - Silverdale","phone":"01524 701744","odsCode":"A82074","location":{"address":["20a Emesgate Lane","Silverdale","Carnforth","Lancs"],"postcode":"LA5 0RA","latitude":54.1684341430664,"longitude":-2.82691311836243}},{"choicesId":42022,"_id":42022,"syndicationId":24599,"name":"Ashcroft Surgery","phone":"0161 224 1329","odsCode":"P84053","location":{"address":["803 Stockport Road","Levenshulme","Manchester"],"postcode":"M19 3BS","latitude":53.4454536437988,"longitude":-2.19115519523621}},{"choicesId":36789,"_id":36789,"syndicationId":5227,"name":"Ashfield Medical Centre","phone":"01623 559992","odsCode":"C84712","location":{"address":["King Street","Sutton In Ashfield","Mansfield","Nottinghamshire"],"postcode":"NG17 1AT","latitude":53.1234474182129,"longitude":-1.26344132423401}},{"choicesId":37090,"_id":37090,"syndicationId":24420,"name":"Ashfield Medical Centre","phone":"01253 956030","odsCode":"P81722","location":{"address":["Moor Park Health & Leisure","Bristol Avenue","Bispham","Lancashire"],"postcode":"FY2 0JG","latitude":53.8495597839355,"longitude":-3.03348851203918}},{"choicesId":36679,"_id":36679,"syndicationId":14697,"name":"Abbotsbury Road Surgery - Chickerell Branch","phone":"01305 761915 or 0844 477 2540","odsCode":"J81055","location":{"address":["36 Lower Way","Chickerell","Weymouth","Chickerell"],"postcode":"DT3 4AR","latitude":50.623706817627,"longitude":-2.5022976398468}},{"choicesId":36949,"_id":36949,"syndicationId":12859,"name":"Abernethy House","phone":"02083704940","odsCode":"F85029","location":{"address":["Abernethy House","70 Silver Street","Enfield","Middlesex"],"postcode":"EN1 3EB","latitude":51.6543922424316,"longitude":-0.0811791941523552}},{"choicesId":40081,"_id":40081,"syndicationId":15429,"name":"Abington Park Surgery","phone":"01604 630396","odsCode":"K83029","location":{"address":["Christchurch Medical Centre","Ardington Road","Northampton","Northamptonshire"],"postcode":"NN1 5LT","latitude":52.242488861084,"longitude":-0.868375897407532}},{"choicesId":41630,"_id":41630,"syndicationId":44637,"name":"Accrington Victoria Health Access Centre","phone":"01254 770480","odsCode":"Y02605","location":{"address":["Accrington Victoria Community Hospital","Haywood Road","Accrington","Lancashire"],"postcode":"BB5 6AS","latitude":53.7595863342285,"longitude":-2.36690640449524}},{"choicesId":38245,"_id":38245,"syndicationId":5776,"name":"Acorn Surgery Oak Tree Centre 1 Oak Drive Huntingdon Cambs","phone":"01480 483100","odsCode":"D81633","location":{"address":["Oak Tree Centre","1 Oak Drive","Huntingdon","Cambs"],"postcode":"PE29 7HN","latitude":52.3453979492188,"longitude":-0.175719857215881}},{"choicesId":42146,"_id":42146,"syndicationId":24220,"name":"Acreswood Surgery","phone":"01257 791796","odsCode":"P81033","location":{"address":["Coppull Medical Practice","Acreswood Surgery","5 Acreswood Close","Coppull Chorley"],"postcode":"PR7 5EN","latitude":53.6197204589844,"longitude":-2.66248655319214}},{"choicesId":41946,"_id":41946,"syndicationId":16725,"name":"Adderley Green Surgery","phone":"01782 311266","odsCode":"M83661","location":{"address":["Adderley Green Surgery","28-30 Weston Street","Adderley Green","Stoke-On-Trent","Staffordshire"],"postcode":"ST3 5DQ","latitude":52.9979438781738,"longitude":-2.12423729896545}},{"choicesId":39093,"_id":39093,"syndicationId":13654,"name":"Abbey Wood Surgery","phone":"020 8310 7066","odsCode":"G83031","location":{"address":["9 Godstow Road","Abbey Wood","London"],"postcode":"SE2 9AT","latitude":51.4971084594727,"longitude":0.116661064326763}},{"choicesId":38729,"_id":38729,"syndicationId":11631,"name":"Abbotswood Medical Centre","phone":"01923 673060","odsCode":"E82105","location":{"address":["Abbotswood Medical Centre","12 Katherine Place","Off College Road","Abbots Langley"],"postcode":"WD5 0BT","latitude":51.700927734375,"longitude":-0.40384915471077}},{"choicesId":40294,"_id":40294,"syndicationId":17690,"name":"ABINGDON FAMILY HEALTH CARE CENTRE","phone":"0151 226 1501","odsCode":"N82086","location":{"address":["361-365 Queens Drive","Walton","Liverpool","Merseyside"],"postcode":"L4 8SJ","latitude":53.4405746459961,"longitude":-2.94348812103271}},{"choicesId":40620,"_id":40620,"syndicationId":12771,"name":"Abiola P","phone":"020 8250 7550","odsCode":"F84631","location":{"address":["121 Woodgrange Road","North West Newham","Forest Gate","Newham"],"postcode":"E7 0EP","latitude":51.5505561828613,"longitude":0.0248787216842175}},{"choicesId":38681,"_id":38681,"syndicationId":3032,"name":"Acklam Road Surgery","phone":"01642 818952","odsCode":"A81004","location":{"address":["283 Acklam Road","Middlesbrough","Cleveland"],"postcode":"TS5 7BP","latitude":54.5453796386719,"longitude":-1.2578558921814}},{"choicesId":35794,"_id":35794,"syndicationId":12504,"name":"Acorns PMS","phone":"01375 397470","odsCode":"F81742","location":{"address":["Orsett Road","Grays","Essex"],"postcode":"RM17 5DF","latitude":51.4782524108887,"longitude":0.324022382497787}},{"choicesId":40616,"_id":40616,"syndicationId":11832,"name":"ACTON LANE SURGERY","phone":"020 8961 1183","odsCode":"E84645","location":{"address":["85-87 Acton Lane","Harlesden","London"],"postcode":"NW10 8UT","latitude":51.5368614196777,"longitude":-0.253968715667725}},{"choicesId":45166,"_id":45166,"syndicationId":14354,"name":"ADDISCOMBE ROAD SURGERY","phone":"020 86542200","odsCode":"H83008","location":{"address":["395 A ADDISCOMBE ROAD","395A ADDISCOMBE ROAD","CROYDON","SURREY"],"postcode":"CR0 7LJ","latitude":51.376293182373,"longitude":-0.0618368647992611}},{"choicesId":36584,"_id":36584,"syndicationId":14696,"name":"Abbotsbury Road Practice","phone":"01305 780806","odsCode":"J81055","location":{"address":["24 Abbotsbury Road","Weymouth","Dorset","Weymouth"],"postcode":"DT4 0AE","latitude":50.6120300292969,"longitude":-2.46197819709778}},{"choicesId":41200,"_id":41200,"syndicationId":12804,"name":"ABERFELDY PRACTICE","phone":"020 7515-5622","odsCode":"F84698","location":{"address":["2a Ettrick Street","London"],"postcode":"E14 0PU","latitude":51.5144844055176,"longitude":-0.00491269771009684}},{"choicesId":44119,"_id":44119,"syndicationId":15445,"name":"Abington Medical Centre","phone":"01604 723420","odsCode":"K83043","location":{"address":["51a Beech Avenue","Northampton","Northants"],"postcode":"NN3 2JG","latitude":52.2532615661621,"longitude":-0.865876734256744}},{"choicesId":42893,"_id":42893,"syndicationId":12386,"name":"Abridge Surgery","phone":"01992 812961","odsCode":"F81184","location":{"address":["37 Ongar Road","Abridge","Romford","Essex"],"postcode":"RM4 1UH","latitude":51.6540298461914,"longitude":0.12516476213932}},{"choicesId":41540,"_id":41540,"syndicationId":5207,"name":"Acorn Medical Practice","phone":"01623 428412","odsCode":"C84679","location":{"address":["11-13 Wood Street","11-13 Wood Street","Mansfield","Mansfield"],"postcode":"NG18 1QA","latitude":53.1469917297363,"longitude":-1.20243990421295}},{"choicesId":37701,"_id":37701,"syndicationId":12075,"name":"Acrefield Surgery","phone":"02084225900","odsCode":"E86615","location":{"address":["Acrefield Surgery","700 Field End Road","South Ruislip","Middlesex","Middlesex"],"postcode":"HA4 0QR","latitude":51.5622253417969,"longitude":-0.382294118404388}},{"choicesId":36887,"_id":36887,"syndicationId":15044,"name":"Adcroft Surgery","phone":"01225 435757","odsCode":"J83016","location":{"address":["Adcroft Surgery","Prospect Place","Trowbridge","Wiltshire","Wiltshire"],"postcode":"BA14 8QA","latitude":51.3251419067383,"longitude":-2.20714068412781}},{"choicesId":39063,"_id":39063,"syndicationId":14927,"name":"Abbeywell Surgery","phone":"01794 512218","odsCode":"J82145","location":{"address":["Abbeywell Surgery","The Abbey","Romsey","Hampshire","Hampshire"],"postcode":"SO51 8EN","latitude":50.9891052246094,"longitude":-1.50188612937927}},{"choicesId":42862,"_id":42862,"syndicationId":17670,"name":"ABERCROMBY FAMILY PRACTICE","phone":"0151 295 3888","odsCode":"N82054","location":{"address":["Grove Street","Edge Hill","Liverpool","Merseyside"],"postcode":"L7 7HG","latitude":53.3990364074707,"longitude":-2.96172976493835}},{"choicesId":39732,"_id":39732,"syndicationId":12143,"name":"Abingdon Medical Practice","phone":"020 7795 8470","odsCode":"E87701","location":{"address":["88-92 Earls Court Road","London"],"postcode":"W8 6EG","latitude":51.4960861206055,"longitude":-0.197123512625694}},{"choicesId":38749,"_id":38749,"syndicationId":12769,"name":"ABNEY HOUSE MEDICAL CENTRE","phone":"020 7254-6820","odsCode":"F84624","location":{"address":["2 Defoe Road","London"],"postcode":"N16 0EF","latitude":51.5617599487305,"longitude":-0.078834094107151}},{"choicesId":43959,"_id":43959,"syndicationId":12083,"name":"Acorn Medical Centre","phone":"01895 237474","odsCode":"E86632","location":{"address":["Acorn Medical Centre","149 Long Lane","Hillingdon","Middlesex"],"postcode":"UB10 9JN","latitude":51.5423278808594,"longitude":-0.451671481132507}},{"choicesId":42745,"_id":42745,"syndicationId":12069,"name":"Acre Surgery","phone":"01923 820844","odsCode":"E86041","location":{"address":["Northwood Health Centre","Neal Close, Acre Way","Northwood","Middlesex","Middlesex"],"postcode":"HA6 1TQ","latitude":51.6044654846191,"longitude":-0.411537140607834}},{"choicesId":42310,"_id":42310,"syndicationId":4573,"name":"Adam House Medical Centre","phone":"0115 949 6911","odsCode":"C81026","location":{"address":["85-91 Derby Road","Sandiacre","Nottingham","Notts"],"postcode":"NG10 5HZ","latitude":52.922550201416,"longitude":-1.29420757293701}},{"choicesId":40359,"_id":40359,"syndicationId":12384,"name":"Addison House Surgery","phone":"01279 621900","odsCode":"F81181","location":{"address":["Hamstel Road","Harlow","Essex"],"postcode":"CM20 1DS","latitude":51.7708892822266,"longitude":0.088993027806282}},{"choicesId":37327,"_id":37327,"syndicationId":12630,"name":"Adelaide Medical Centre","phone":"020 7722 4135","odsCode":"F83020","location":{"address":["111 Adelaide Road","London"],"postcode":"NW3 3RY","latitude":51.5435485839844,"longitude":-0.161242216825485}},{"choicesId":38691,"_id":38691,"syndicationId":24840,"name":"Adswood Road Surgery","phone":"0161 4269770","odsCode":"P88617","location":{"address":["270 Adswood Road","Adswood","Stockport","Cheshire"],"postcode":"SK3 8PN","latitude":53.3893966674805,"longitude":-2.1698682308197}},{"choicesId":35342,"_id":35342,"syndicationId":14455,"name":"Agrawal R K & K","phone":"020 83991779","odsCode":"H84054","location":{"address":["1 A Red Lion Road","Tolworth","Surbiton","Tolworth,Surrey"],"postcode":"KT6 7QG","latitude":51.3816108703613,"longitude":-0.290147304534912}},{"choicesId":39079,"_id":39079,"syndicationId":12170,"name":"Ahmed [N]","phone":"020 8964 9990","odsCode":"E87755","location":{"address":["Dart Street","London"],"postcode":"W10 4LD","latitude":51.5305786132813,"longitude":-0.207626655697823}},{"choicesId":35848,"_id":35848,"syndicationId":5765,"name":"Ailsworth Medical Centre","phone":"01733 810274","odsCode":"D81618","location":{"address":["Newborough Medical Centre","Guntons Road","Newborough","Peterborough","Cambridgeshire"],"postcode":"PE6 7QW","latitude":52.639720916748,"longitude":-0.22279354929924}},{"choicesId":37646,"_id":37646,"syndicationId":17668,"name":"Aintree Park Group Practice","phone":"0151 295 8350","odsCode":"N82053","location":{"address":["Oriel Drive","Aintree","Liverpool","Liverpool"],"postcode":"L10 6NJ","latitude":53.4854316711426,"longitude":-2.93545627593994}},{"choicesId":39545,"_id":39545,"syndicationId":13892,"name":"Akerman Medical Practice","phone":"020 3049 6500","odsCode":"G85695","location":{"address":["Akerman Health Centre","60 Patmos Road","London"],"postcode":"SW9 6AF","latitude":51.4764709472656,"longitude":-0.105735823512077}},{"choicesId":44059,"_id":44059,"syndicationId":24230,"name":"Adelaide Street Surgery","phone":"01253 620725","odsCode":"P81042","location":{"address":["118 Adelaide Street","Blackpool","Lancashire"],"postcode":"FY1 4LN","latitude":53.8172950744629,"longitude":-3.04852175712585}},{"choicesId":37690,"_id":37690,"syndicationId":4310,"name":"Adwalton House Surgery","phone":"0113 285 3222","odsCode":"B86057","location":{"address":["Adwalton House Surgery","1 - 3 Wakefield Road","Drighlington","Bradford"],"postcode":"BD11 1DH","latitude":53.7537422180176,"longitude":-1.65316557884216}},{"choicesId":36133,"_id":36133,"syndicationId":14456,"name":"Agrawal R K & K","phone":"020 83908444","odsCode":"H84054","location":{"address":["94 Alexandra Drive","Surbiton","Surrey","Berrylands,Tolworth"],"postcode":"KT5 9AG","latitude":51.3898849487305,"longitude":-0.282810509204865}},{"choicesId":40155,"_id":40155,"syndicationId":12787,"name":"Ahmed AU","phone":"02036680788","odsCode":"F84669","location":{"address":["576 Green Street","London","London"],"postcode":"E13 9DA","latitude":51.531436920166,"longitude":0.0372084639966488}},{"choicesId":38578,"_id":38578,"syndicationId":5766,"name":"Ailsworth Medical Centre","phone":"01733 380686","odsCode":"D81618","location":{"address":["32 Main Street","Ailsworth","Peterborough","Cambs"],"postcode":"PE5 7AF","latitude":52.5774345397949,"longitude":-0.352457493543625}},{"choicesId":44930,"_id":44930,"syndicationId":17669,"name":"Aintree Park Group Practice","phone":"0151 295 8350","odsCode":"N82053","location":{"address":["46 Moss Lane","Orrell Park","Liverpool","Liverpool"],"postcode":"L9 8AL","latitude":53.4628028869629,"longitude":-2.96728277206421}},{"choicesId":40048,"_id":40048,"syndicationId":11780,"name":"AKSYR MEDICAL PRACTICE","phone":"020 3188 7270","odsCode":"E84030","location":{"address":["Hilltop Primary Care Centre","1st Floor ,150 Hilltop Avenue","Harlesden","London"],"postcode":"NW10 8RY","latitude":51.5424728393555,"longitude":-0.263589143753052}},{"choicesId":43805,"_id":43805,"syndicationId":44732,"name":"Adelaide Gp Surgery","phone":"0300 1236066","odsCode":"Y02838","location":{"address":["Adelaide GP Surgery","Adelaide Health Centre","William Macleod Way","Southampton","Hampshire"],"postcode":"SO16 4XE","latitude":50.9251136779785,"longitude":-1.44616854190826}},{"choicesId":36152,"_id":36152,"syndicationId":24808,"name":"Adshall Road Medical Practice","phone":"0161 4912292","odsCode":"P88014","location":{"address":["97 Adshall Road","Cheadle","Cheshire"],"postcode":"SK8 2JN","latitude":53.3900489807129,"longitude":-2.19105696678162}},{"choicesId":43972,"_id":43972,"syndicationId":16771,"name":"Aelfgar Surgery","phone":"01889 579276","odsCode":"M83738","location":{"address":["Church Street","Rugeley","Staffs"],"postcode":"WS15 2AB","latitude":52.7635841369629,"longitude":-1.93768608570099}},{"choicesId":42227,"_id":42227,"syndicationId":3427,"name":"Ahmed","phone":"01670 714581","odsCode":"A84046","location":{"address":["Civic Precinct","Forum Way","Cramlington","Northumberland"],"postcode":"NE23 6QN","latitude":55.0844841003418,"longitude":-1.5915002822876}},{"choicesId":43165,"_id":43165,"syndicationId":24557,"name":"Ailsa Craig Medical Practice","phone":"0161 224 5555","odsCode":"P84009","location":{"address":["270 Dickenson Road","Longsight","Manchester"],"postcode":"M13 0YL","latitude":53.4541778564453,"longitude":-2.20852708816528}},{"choicesId":40084,"_id":40084,"syndicationId":17839,"name":"AINSDALE VILLAGE SURGERY","phone":"01704 577866","odsCode":"N84014","location":{"address":["2 Leamington Road","Southport","Merseyside"],"postcode":"PR8 3LB","latitude":53.6012077331543,"longitude":-3.03651189804077}},{"choicesId":37281,"_id":37281,"syndicationId":4326,"name":"Aireborough Family Practice","phone":"0113 3911950","odsCode":"B86070","location":{"address":["Silver Lane Surgery","Suffolk Court","Silver Lane","Yeadon"],"postcode":"LS19 7JN","latitude":53.8666648864746,"longitude":-1.68486654758453}},{"choicesId":43174,"_id":43174,"syndicationId":15425,"name":"Albany House Medical Centre","phone":"01933 234 900","odsCode":"K83026","location":{"address":["3 Queen Street","Wellingborough","Northamptonshire"],"postcode":"NN8 4RW","latitude":52.3033981323242,"longitude":-0.695552706718445}},{"choicesId":39555,"_id":39555,"syndicationId":4241,"name":"Adel Surgery","phone":"0113 3930119","odsCode":"B86008","location":{"address":["141 Long Causeway","Leeds"],"postcode":"LS16 8EX","latitude":53.8506202697754,"longitude":-1.5818487405777}},{"choicesId":44678,"_id":44678,"syndicationId":24436,"name":"Adlington Medical Centre","phone":"01257 482076","odsCode":"P81740","location":{"address":["Adlington Medical Centre","22-24 Babylon Lane","anderton","Chorley"],"postcode":"PR6 9NW","latitude":53.6185150146484,"longitude":-2.59605622291565}},{"choicesId":36998,"_id":36998,"syndicationId":12255,"name":"Aegis Medical Centre","phone":"01268 532795","odsCode":"F81060","location":{"address":["568 Whitmore Way","Basildon","Essex"],"postcode":"SS14 2ER","latitude":51.5755577087402,"longitude":0.467539429664612}},{"choicesId":37359,"_id":37359,"syndicationId":16672,"name":"Ahmad M S","phone":"01543 674503","odsCode":"M83115","location":{"address":["11 Longfellow Road","Staffs","Burntwood"],"postcode":"WS7 2EY","latitude":52.6903305053711,"longitude":-1.92675304412842}},{"choicesId":41346,"_id":41346,"syndicationId":4584,"name":"AHMED I","phone":"01773 531011","odsCode":"C81031","location":{"address":["The Park Surgery","60 Ilkeston Road","Heanor","Derbyshire"],"postcode":"DE75 7DX","latitude":53.0104217529297,"longitude":-1.35122990608215}},{"choicesId":44399,"_id":44399,"syndicationId":17837,"name":"AINSDALE MEDICAL CENTRE","phone":"01704 575133","odsCode":"N84012","location":{"address":["66 Station Road","Ainsdale","Southport","Merseyside"],"postcode":"PR8 3HW","latitude":53.6023406982422,"longitude":-3.03880643844604}},{"choicesId":38650,"_id":38650,"syndicationId":15677,"name":"Air Balloon Surgery","phone":"0117 9099912","odsCode":"L81038","location":{"address":["Air Balloon Surgery","Kenn Road","St George","Bristol"],"postcode":"BS5 7PD","latitude":51.4590034484863,"longitude":-2.53142380714417}},{"choicesId":42622,"_id":42622,"syndicationId":24487,"name":"ALASTAIR ROSS MEDICAL PRACTICE","phone":"01204 463800","odsCode":"P82018","location":{"address":["Breightmet Health Centre","Breightmet Fold Lane","Bolton","Lancashire"],"postcode":"BL2 6NT","latitude":53.5823593139648,"longitude":-2.38426446914673}},{"choicesId":40176,"_id":40176,"syndicationId":15965,"name":"Albany Surgery","phone":"01626 334411","odsCode":"L83034","location":{"address":["Albany Surgery","Grace House, Scott Close","East Street","Newton Abbot","Devon"],"postcode":"TQ12 1GJ","latitude":50.5287437438965,"longitude":-3.6085364818573}},{"choicesId":44996,"_id":44996,"syndicationId":12695,"name":"ALBION HEALTH CENTRE","phone":"020 7456 9820","odsCode":"F84012","location":{"address":["333 Whitechapel Road","London"],"postcode":"E1 1BU","latitude":51.5200157165527,"longitude":-0.057643685489893}},{"choicesId":41941,"_id":41941,"syndicationId":13276,"name":"Albion Place Medical Practice","phone":"01622 235613","odsCode":"G82017","location":{"address":["Albion Place Medical Practice","23-29 Albion Place","Maidstone","Kent"],"postcode":"ME14 5DY","latitude":51.2742042541504,"longitude":0.529556334018707}},{"choicesId":44164,"_id":44164,"syndicationId":17698,"name":"ALBION SURGERY","phone":"0151 300 8302","odsCode":"N82095","location":{"address":["45 Everton Road","Liverpool","Merseyside"],"postcode":"L6 2EH","latitude":53.4157943725586,"longitude":-2.96459054946899}},{"choicesId":43232,"_id":43232,"syndicationId":15593,"name":"Alchester Medical Group - Langford Medical Practice","phone":"01869 248585","odsCode":"K84613","location":{"address":["Langford Medical Practice","9 Nightingale Place","Bicester","Oxfordshire"],"postcode":"OX26 6XX","latitude":51.8912658691406,"longitude":-1.13834941387177}},{"choicesId":39695,"_id":39695,"syndicationId":5980,"name":"Aldeburgh Surgery","phone":"01728 452027","odsCode":"D83036","location":{"address":["Church Farm Surgery","Victoria Road","Aldeburgh","Suffolk"],"postcode":"IP15 5BR","latitude":52.1555061340332,"longitude":1.5985689163208}},{"choicesId":42418,"_id":42418,"syndicationId":16665,"name":"Alderwood Medical Practice","phone":"01543 571055","odsCode":"M83107","location":{"address":["Alderwood Medical Practice","Longford Road","Cannock"],"postcode":"WS11 1QN","latitude":52.6836776733398,"longitude":-2.04042983055115}},{"choicesId":40374,"_id":40374,"syndicationId":15424,"name":"Albany House Medical Centre (Wollaston branch)","phone":"01933 234 900","odsCode":"K83026","location":{"address":["25 St Michael's Lane","Wollaston","Northamptonshire","England - Uk"],"postcode":"NN29 7QH","latitude":52.2549858093262,"longitude":-0.672389924526215}},{"choicesId":38560,"_id":38560,"syndicationId":3036,"name":"Albert House Clinic","phone":"01642 466 776","odsCode":"A81008","location":{"address":["Normanby Road","Normanby","Middlesbrough"],"postcode":"TS6 6TD","latitude":54.5712127685547,"longitude":-1.16760945320129}},{"choicesId":42552,"_id":42552,"syndicationId":17174,"name":"Albion House Surgery","phone":"01384 884031","odsCode":"M87009","location":{"address":["Albion Street","Brierley Hill","West Midlands"],"postcode":"DY5 3EE","latitude":52.4820518493652,"longitude":-2.12233424186707}},{"choicesId":44732,"_id":44732,"syndicationId":13869,"name":"Albion Street Group Practice","phone":"020 3049 7120","odsCode":"G85138","location":{"address":["Albion Street Health Centre","87 Albion Street","London"],"postcode":"SE16 7JX","latitude":51.5010070800781,"longitude":-0.0506283566355705}},{"choicesId":43616,"_id":43616,"syndicationId":16506,"name":"Albrighton Medical Practice","phone":"01902 372301","odsCode":"M82021","location":{"address":["Albrighton Medical Practice","Shaw Lane","Albrighton","Wolverhampton"],"postcode":"WV7 3DT","latitude":52.6364555358887,"longitude":-2.27150654792786}},{"choicesId":125397,"_id":125397,"syndicationId":6795600,"name":"Alchester Medical Group - Victoria House Surgery","phone":"01869 248585","odsCode":"K84613","location":{"address":["Victoria House","119 Buckingham Road","Bicester","Oxfordshire"],"postcode":"OX26 3EU","latitude":51.907844543457,"longitude":-1.15057742595673}},{"choicesId":39620,"_id":39620,"syndicationId":14865,"name":"Aldermoor Surgery","phone":"023 80241000","odsCode":"J82092","location":{"address":["Aldermoor Health Centre","Aldermoor Close","Southampton","Hampshire"],"postcode":"SO16 5ST","latitude":50.940299987793,"longitude":-1.42805624008179}},{"choicesId":37233,"_id":37233,"syndicationId":24621,"name":"Aleeshan Medical Centre","phone":"0161 795 0200","odsCode":"P84623","location":{"address":["3 Shirley Road","Cheetham","Manchester"],"postcode":"M8 0WB","latitude":53.5078277587891,"longitude":-2.23888635635376}},{"choicesId":37811,"_id":37811,"syndicationId":16446,"name":"Albany House Surgery - Dr Brotherwood and partners","phone":"01905 26086","odsCode":"M81072","location":{"address":["Albany House Surgery","Albany Terrace","Barbourne","Worcester"],"postcode":"WR1 3DU","latitude":52.2003326416016,"longitude":-2.22718238830566}},{"choicesId":39669,"_id":39669,"syndicationId":44761,"name":"Albert Road Surgery","phone":"020 8104 2222","odsCode":"Y02928","location":{"address":["76 Albert Road","North Woolwich","London","London"],"postcode":"E16 2DY","latitude":51.5015563964844,"longitude":0.0531227178871632}},{"choicesId":37671,"_id":37671,"syndicationId":24851,"name":"Albion Medical Practice","phone":"0161 2148710","odsCode":"P89003","location":{"address":["Albion Medical Practice","1 Albion Street","Ashton-under-Lyne","Lancashire"],"postcode":"OL6 6HF","latitude":53.4896087646484,"longitude":-2.08846116065979}},{"choicesId":44895,"_id":44895,"syndicationId":4209,"name":"Albion Street Surgery","phone":"01924 402073","odsCode":"B85619","location":{"address":["10 Albion Street","Heckmondwike","West Yorkshire"],"postcode":"WF16 9LQ","latitude":53.7086753845215,"longitude":-1.67507886886597}},{"choicesId":43462,"_id":43462,"syndicationId":16833,"name":"Alcester Health Centre","phone":"01789 763060","odsCode":"M84049","location":{"address":["Fields Park Drive","Alcester","Warwickshire"],"postcode":"B49 6QR","latitude":52.2177848815918,"longitude":-1.86347389221191}},{"choicesId":36174,"_id":36174,"syndicationId":5656,"name":"Alconbury Surgery","phone":"01480 890281","odsCode":"D81004","location":{"address":["School Lane","Alconbury","Huntingdon","Cambs"],"postcode":"PE28 4EQ","latitude":52.3717002868652,"longitude":-0.256782054901123}},{"choicesId":44701,"_id":44701,"syndicationId":13040,"name":"Aldersbrook Medical Centre","phone":"020 8518 8080","odsCode":"F86731","location":{"address":["Aldersbrook Medical Centre","65 Aldersbrook Road","Manor Park","London"],"postcode":"E12 5DL","latitude":51.5606727600098,"longitude":0.0383704528212547}},{"choicesId":41180,"_id":41180,"syndicationId":14892,"name":"Alexander House Surgery","phone":"01252 541155","odsCode":"J82120","location":{"address":["Alexander House","2 Salisbury Road","Farnborough","Hampshire"],"postcode":"GU14 7AW","latitude":51.2937507629395,"longitude":-0.751987814903259}},{"choicesId":38658,"_id":38658,"syndicationId":11872,"name":"Albany Practice","phone":"020 8630 3838","odsCode":"E85004","location":{"address":["Boston Manor Road","Brentford Health Centre","Brentford","Middlesex"],"postcode":"TW8 8DS","latitude":51.486759185791,"longitude":-0.310040146112442}},{"choicesId":39207,"_id":39207,"syndicationId":3564,"name":"Albert Road Surgery - Dr W H McManus","phone":"0191 3009659","odsCode":"A88010","location":{"address":["Albert Road Surgery","118 Albert Road","Jarrow","Tyne and Wear"],"postcode":"NE32 5AG","latitude":54.9780693054199,"longitude":-1.49147844314575}},{"choicesId":35678,"_id":35678,"syndicationId":4187,"name":"Albion Mount Medical Practice","phone":"01924 430676","odsCode":"B85646","location":{"address":["47 Albion Street","Dewsbury","West Yorkshire"],"postcode":"WF13 2AJ","latitude":53.6959075927734,"longitude":-1.63369464874268}},{"choicesId":43701,"_id":43701,"syndicationId":13211,"name":"Albion Street Surgery","phone":"01273 601122","odsCode":"G81090","location":{"address":["Albion Street Surgery","9 Albion Street","Brighton","Brighton"],"postcode":"BN2 9PS","latitude":50.8276290893555,"longitude":-0.133951142430305}},{"choicesId":41936,"_id":41936,"syndicationId":15592,"name":"Alchester Medical Group - Ambrosden Surgery","phone":"01869 256336","odsCode":"K84613","location":{"address":["Ambrosden Surgery","Ploughley Road","Ambrosden","Bicester","Oxfordshire"],"postcode":"OX25 2RB","latitude":51.8737907409668,"longitude":-1.12399792671204}},{"choicesId":35763,"_id":35763,"syndicationId":5928,"name":"Aldborough Surgery","phone":"01263 768602","odsCode":"D82628","location":{"address":["Chapel Road","Aldborough","Norwich","Norfolk"],"postcode":"NR11 7NP","latitude":52.862377166748,"longitude":1.24754059314728}},{"choicesId":38981,"_id":38981,"syndicationId":6003,"name":"Alderton Health Centre","phone":"01394 411 641","odsCode":"D83054","location":{"address":["The Peninsula Practice","Mill Hoo, Alderton","Woodbridge","Suffolk"],"postcode":"IP12 3DA","latitude":52.0241966247559,"longitude":1.41689085960388}},{"choicesId":36816,"_id":36816,"syndicationId":3265,"name":"Auckland Medical Group","phone":"01388 602728","odsCode":"A83021","location":{"address":["The Old Firehouse Watling Road","Bishop Auckland","Co Durham","Bishop Auckland"],"postcode":"DL14 6RP","latitude":54.6480865478516,"longitude":-1.67898035049438}},{"choicesId":41249,"_id":41249,"syndicationId":24402,"name":"Aughton Surgery","phone":"01695 422384","odsCode":"P81695","location":{"address":["Aughton Surgery","19 Town Green Lane","Aughton","Ormskirk"],"postcode":"L39 6SE","latitude":53.5436744689941,"longitude":-2.90207576751709}},{"choicesId":37245,"_id":37245,"syndicationId":4664,"name":"Avenue House & Hasland Partnership","phone":"01246 244040","odsCode":"C81084","location":{"address":["Avenue House Surgery","109 Saltergate","Chesterfield","Derbyshire"],"postcode":"S40 1LE","latitude":53.2380332946777,"longitude":-1.433558344841}},{"choicesId":39577,"_id":39577,"syndicationId":15053,"name":"Avon Valley Practice","phone":"01980 630221","odsCode":"J83023","location":{"address":["Avon Valley Practice","Fairfield","Upavon","Pewsey Wiltshire"],"postcode":"SN9 6DZ","latitude":51.2941093444824,"longitude":-1.81208968162537}},{"choicesId":43551,"_id":43551,"syndicationId":16324,"name":"Axbridge Surgery","phone":"01934 732464","odsCode":"L85055","location":{"address":["Houlgate Way","Axbridge","Somerset"],"postcode":"BS26 2BJ","latitude":51.2862854003906,"longitude":-2.82038807868958}},{"choicesId":37121,"_id":37121,"syndicationId":44457,"name":"Aylesbury Partnership The Dun Cow Surgery","phone":"020 3302 3007","odsCode":"G85012","location":{"address":["279 Old Kent Road","London"],"postcode":"SE1 5LU","latitude":51.4897232055664,"longitude":-0.0789973810315132}},{"choicesId":43404,"_id":43404,"syndicationId":5819,"name":"Aylsham Surgery","phone":"01263 733693","odsCode":"D82030","location":{"address":["60 Hungate Street","Aylsham","Norwich","Norfolk"],"postcode":"NR11 6AA","latitude":52.7939605712891,"longitude":1.2503604888916}},{"choicesId":42096,"_id":42096,"syndicationId":3266,"name":"Auckland Medical Group","phone":"01388 834843","odsCode":"A83021","location":{"address":["51 Toft Hill","Bishop Auckland","County Durham"],"postcode":"DL14 0JA","latitude":54.6483116149902,"longitude":-1.7504974603653}},{"choicesId":36121,"_id":36121,"syndicationId":24454,"name":"Avenham Lane Practice","phone":"01772 401931","odsCode":"P81770","location":{"address":["Avenham Lane Practice","Avenham Health Centre","Avenham Lane","Avenham Preston"],"postcode":"PR1 3RG","latitude":53.7569808959961,"longitude":-2.69393372535706}},{"choicesId":37460,"_id":37460,"syndicationId":3703,"name":"Avenues Medical Centre","phone":"01482 343614","odsCode":"B81035","location":{"address":["The Avenues Medical Centre","147-153 Chanterlands Avenue","Kingston Upon Hull","Hull"],"postcode":"HU5 3TJ","latitude":53.7556343078613,"longitude":-0.374200373888016}},{"choicesId":40807,"_id":40807,"syndicationId":15054,"name":"Avon Valley Practice","phone":"01980 652378","odsCode":"J83023","location":{"address":["Avon Valley Practice","77 Bulford Road","Durrington","Salisbury Wiltshire"],"postcode":"SP4 8EU","latitude":51.1981544494629,"longitude":-1.7713475227356}},{"choicesId":41256,"_id":41256,"syndicationId":15944,"name":"Axminster Medical Practice","phone":"01297 32126","odsCode":"L83020","location":{"address":["St Thomas Court","Church Street","Axminster","Devon"],"postcode":"EX13 5AG","latitude":50.7809028625488,"longitude":-2.99921250343323}},{"choicesId":44545,"_id":44545,"syndicationId":13326,"name":"Aylesford Medical Centre","phone":"01622 885880","odsCode":"G82058","location":{"address":["Admiral Moore Drive","Royal British Legion","Aylesford","Maidstone Kent"],"postcode":"ME20 7SE","latitude":51.2951889038086,"longitude":0.475625365972519}},{"choicesId":41861,"_id":41861,"syndicationId":15357,"name":"Aysgarth Medical Centre","phone":"01753 653976","odsCode":"K82055","location":{"address":["Church Road","Iver Heath","Buckinghamshire","Iver Heath"],"postcode":"SL0 0RW","latitude":51.5413208007813,"longitude":-0.522062480449677}},{"choicesId":42945,"_id":42945,"syndicationId":3267,"name":"Auckland Medical Group","phone":"01388 604163","odsCode":"A83021","location":{"address":["16 Manor Road","St Helen Auckland","Bishop Auckland","Co Durham"],"postcode":"DL14 9EP","latitude":54.6353759765625,"longitude":-1.71365880966187}},{"choicesId":35874,"_id":35874,"syndicationId":17484,"name":"Audlem Medical Practice","phone":"01270 811440","odsCode":"N81001","location":{"address":["16 Cheshire Street","Audlem","Crewe","Cheshire"],"postcode":"CW3 0AH","latitude":52.9896202087402,"longitude":-2.50870203971863}},{"choicesId":105413,"_id":105413,"syndicationId":3137762,"name":"Avenue House & Hasland Partnership","phone":"01246 278008","odsCode":"C81084","location":{"address":["82 St. Philips Drive","Hasland","Chesterfield","Derbyshire"],"postcode":"S41 0RG","latitude":53.2229537963867,"longitude":-1.41767108440399}},{"choicesId":37803,"_id":37803,"syndicationId":12606,"name":"Avon Road Surgery","phone":"0300 300 1863","odsCode":"F82674","location":{"address":["Cranham Health Centre","Avon Road","Upminster","Essex"],"postcode":"RM14 1RG","latitude":51.5688629150391,"longitude":0.265305787324905}},{"choicesId":44304,"_id":44304,"syndicationId":24852,"name":"Awburn House Surgery","phone":"01457 763263","odsCode":"P89004","location":{"address":["Awburn House","Mottram Moor","Mottram In Longdendale","Hyde"],"postcode":"SK14 6LA","latitude":53.4581069946289,"longitude":-2.01098561286926}},{"choicesId":44612,"_id":44612,"syndicationId":44458,"name":"Aylesbury Partnership The Aylesbury Medical Centre","phone":"020 3302 3007","odsCode":"G85012","location":{"address":["Unit 6 Taplow","Thurlow Street","London"],"postcode":"SE17 2XE","latitude":51.488353729248,"longitude":-0.0866315364837646}},{"choicesId":41353,"_id":41353,"syndicationId":16442,"name":"Aylmer Lodge","phone":"01562 822015","odsCode":"M81068","location":{"address":["Hume Street Medical Centre,","Hume Street","Kidderminster","Worcestershire"],"postcode":"DY11 6SF","latitude":52.3841934204102,"longitude":-2.26108074188232}},{"choicesId":35387,"_id":35387,"syndicationId":11765,"name":"Bacon Lane Surgery Dr Hommel & Partners","phone":"020 8952 5073","odsCode":"E84014","location":{"address":["11 Bacon Lane","Edgware","Middx"],"postcode":"HA8 5AT","latitude":51.6050796508789,"longitude":-0.275888174772263}},{"choicesId":43607,"_id":43607,"syndicationId":11646,"name":"Attenborough Surgery, Carpenders Park","phone":"0208 428 0355","odsCode":"E82124","location":{"address":["Attenborough Close","Off Harrow Way","Carpenders Park","Herts"],"postcode":"WD19 5EU","latitude":51.6268882751465,"longitude":-0.382928103208542}},{"choicesId":42369,"_id":42369,"syndicationId":14384,"name":"AUCKLAND SURGERY","phone":"020 8653 5146","odsCode":"H83037","location":{"address":["84a Auckland Road","London"],"postcode":"SE19 2DF","latitude":51.4095306396484,"longitude":-0.0809080973267555}},{"choicesId":39169,"_id":39169,"syndicationId":3238,"name":"Avenue Family Practice","phone":"0191 513 0884","odsCode":"A83004","location":{"address":["Avenue Family Practice, Deneside Medical Centre","Deneside Medical Centre","The Avenue","Seaham","Durham"],"postcode":"SR7 8LF","latitude":54.8368492126465,"longitude":-1.34889507293701}},{"choicesId":42998,"_id":42998,"syndicationId":13902,"name":"Avicenna Health Centre","phone":"020 7237 1685","odsCode":"G85712","location":{"address":["2 Verney Way","London"],"postcode":"SE16 3HA","latitude":51.4859657287598,"longitude":-0.0633545145392418}},{"choicesId":36950,"_id":36950,"syndicationId":16786,"name":"Avonside Health Centre","phone":"01926 492311","odsCode":"M84010","location":{"address":["Portobello Way","Warwick"],"postcode":"CV34 5GJ","latitude":52.2890892028809,"longitude":-1.56115889549255}},{"choicesId":36724,"_id":36724,"syndicationId":44456,"name":"Aylesbury Partnership Commercial Way Surgery","phone":"020 3302 3007","odsCode":"G85012","location":{"address":["109 Commercial Way","Peckham","London"],"postcode":"SE15 6DB","latitude":51.4773025512695,"longitude":-0.0734277293086052}},{"choicesId":36735,"_id":36735,"syndicationId":4838,"name":"Aylestone Health Centre (part of Leicester Medical Group)","phone":"0116 283 7825","odsCode":"C82092","location":{"address":["15 Hall Lane","Leicester","Leics","Leicester"],"postcode":"LE2 8SF","latitude":52.6056785583496,"longitude":-1.15266382694244}},{"choicesId":35994,"_id":35994,"syndicationId":15703,"name":"Backwell Surgery","phone":"01275 465100","odsCode":"L81060","location":{"address":["Backwell Medical Centre","15 West Town Road","Backwell","Backwell"],"postcode":"BS48 3HA","latitude":51.4131927490234,"longitude":-2.74030876159668}},{"choicesId":37505,"_id":37505,"syndicationId":17726,"name":"Anfield Group Practice","phone":"0151 295 9520","odsCode":"N82103","location":{"address":["Townsend Lane Health Centre","98 Townsend Lane","Merseyside","Liverpool"],"postcode":"L6 0BB","latitude":53.4294815063477,"longitude":-2.94491291046143}},{"choicesId":36745,"_id":36745,"syndicationId":44363,"name":"Angel Surgery","phone":"020 8887 7555","odsCode":"Y00057","location":{"address":["36 Raynham Road","Edmonton","London"],"postcode":"N18 2JF","latitude":51.6137886047363,"longitude":-0.061890497803688}},{"choicesId":37571,"_id":37571,"syndicationId":13532,"name":"APEX Medical Practice","phone":"01634 720220","odsCode":"G82679","location":{"address":["1st Floor, Medical Centre","Gun Lane","Strood","Rochester Kent"],"postcode":"ME2 4UW","latitude":51.3973960876465,"longitude":0.493203461170197}},{"choicesId":38484,"_id":38484,"syndicationId":4608,"name":"Appletree Medical Practice - Duffield","phone":"01332 842288","odsCode":"C81048","location":{"address":["47a Town Street","Duffield","Belper","Derbyshire"],"postcode":"DE56 4GG","latitude":52.985107421875,"longitude":-1.48690474033356}},{"choicesId":39558,"_id":39558,"syndicationId":16713,"name":"Apsley Surgery - Norton Clinic","phone":"03007900160","odsCode":"M83627","location":{"address":["Apsley Surgery based within Norton Clinc","62 Knypersley Road","Norton","Stoke-on-Trent","Staffordshire"],"postcode":"ST6 8HZ","latitude":53.0645141601563,"longitude":-2.16176557540894}},{"choicesId":44940,"_id":44940,"syndicationId":3249,"name":"Arbroath House","phone":"0191 5270328","odsCode":"A83012","location":{"address":["Seaside Lane South","Easington Colliery","County Durham"],"postcode":"SR8 3PE","latitude":54.7879447937012,"longitude":-1.32442653179169}},{"choicesId":39419,"_id":39419,"syndicationId":12291,"name":"Angel Lane Surgery","phone":"01371 872122","odsCode":"F81090","location":{"address":["Angel Lane Surgery","Angel Lane","Great Dunmow","Essex"],"postcode":"CM6 1AQ","latitude":51.8719902038574,"longitude":0.362706810235977}},{"choicesId":36847,"_id":36847,"syndicationId":24224,"name":"Ansdell Medical Centre","phone":"01253 957300","odsCode":"P81037","location":{"address":["Ansdell Medical Centre","Albany Road","Lytham St Annes","Lancashire"],"postcode":"FY8 4GW","latitude":53.7488632202148,"longitude":-3.00048804283142}},{"choicesId":41660,"_id":41660,"syndicationId":3129,"name":"Appleby Medical Practice","phone":"017683 51584","odsCode":"A82006","location":{"address":["The Riverside Building","Chapel Street","Cumbria","Appleby in Westmorland","Cumbria"],"postcode":"CA16 6QR","latitude":54.5793266296387,"longitude":-2.49423980712891}},{"choicesId":43836,"_id":43836,"syndicationId":12495,"name":"APPLEWOOD SURGERY","phone":"01268 562444","odsCode":"F81732","location":{"address":["SWANWOOD PARTNERSHIP","2 Market Avenue","Wickford","Essex"],"postcode":"SS12 0AG","latitude":51.6133728027344,"longitude":0.518616676330566}},{"choicesId":43990,"_id":43990,"syndicationId":5016,"name":"Arboretum Surgery","phone":"01522 524274","odsCode":"Y04943","location":{"address":["Arboretum Surgery","76 Monks Road","Lincoln","Lincolnshire"],"postcode":"LN2 5HU","latitude":53.230785369873,"longitude":-0.528840303421021}},{"choicesId":42971,"_id":42971,"syndicationId":5672,"name":"Arbury Road Surgery","phone":"01223 364433","odsCode":"D81016","location":{"address":["114 Arbury Road","Cambridge","Cambs"],"postcode":"CB4 2JG","latitude":52.2258605957031,"longitude":0.128074735403061}},{"choicesId":35618,"_id":35618,"syndicationId":12617,"name":"Archway Medical Centre","phone":"020 7272 0111","odsCode":"F83004","location":{"address":["Archway Medical Centre","652 Holloway Road","London"],"postcode":"N19 3NU","latitude":51.5625419616699,"longitude":-0.126109540462494}},{"choicesId":42736,"_id":42736,"syndicationId":13260,"name":"Arch Healthcare","phone":"01273 003930","odsCode":"G81689","location":{"address":["School Clinic","Morley Street","Brighton"],"postcode":"BN2 9DH","latitude":50.8258972167969,"longitude":-0.134201914072037}},{"choicesId":42550,"_id":42550,"syndicationId":24845,"name":"Archwood Medical Practice","phone":"0161 426 5800","odsCode":"P88625","location":{"address":["1st Floor, Woodley Health Centre","Woodley","Stockport","Cheshire"],"postcode":"SK6 1ND","latitude":53.4262924194336,"longitude":-2.09964609146118}},{"choicesId":43715,"_id":43715,"syndicationId":5938,"name":"Angel Hill Surgery","phone":"01284 753008","odsCode":"D83005","location":{"address":["1 Angel Hill","Bury St Edmunds","Suffolk","Bury St Edmunds"],"postcode":"IP33 1LU","latitude":52.244197845459,"longitude":0.715755581855774}},{"choicesId":42060,"_id":42060,"syndicationId":11626,"name":"Annandale Medical Centre","phone":"01707 644451","odsCode":"E82098","location":{"address":["The Elms","High Street","Potters Bar","Hertfordshire"],"postcode":"EN6 5DA","latitude":51.6985702514648,"longitude":-0.174196600914001}},{"choicesId":42989,"_id":42989,"syndicationId":5706,"name":"Apple Trees Branch Surgery Earith","phone":"01487 208044","odsCode":"D81040","location":{"address":["Chapel Road","Earith","Cambs"],"postcode":"PE28 3PU","latitude":52.3548965454102,"longitude":0.0340001285076141}},{"choicesId":45023,"_id":45023,"syndicationId":4609,"name":"Appletree Medical Practice - Little Eaton","phone":"01332 842288","odsCode":"C81048","location":{"address":["10 The Town","Little Eaton","Derby","Derbyshire"],"postcode":"DE21 5DH","latitude":52.9696960449219,"longitude":-1.46217584609985}},{"choicesId":38824,"_id":38824,"syndicationId":4854,"name":"Ar Razi Medical Centre","phone":"0116 249 0000","odsCode":"C82105","location":{"address":["1 Evington Lane","Leicester","Leicestershire"],"postcode":"LE5 5PQ","latitude":52.6239013671875,"longitude":-1.10130155086517}},{"choicesId":42807,"_id":42807,"syndicationId":16775,"name":"Arbury Medical Centre","phone":"024-76388555","odsCode":"M84003","location":{"address":["Cambridge Drive","Stockingford","Nuneaton"],"postcode":"CV10 8LW","latitude":52.5166244506836,"longitude":-1.49794685840607}},{"choicesId":44117,"_id":44117,"syndicationId":44760,"name":"Angel Medical Practice","phone":"0207 837 1663","odsCode":"Y02914","location":{"address":["34 Ritchie Street","Islington","London","Islington"],"postcode":"N1 0DG","latitude":51.534740447998,"longitude":-0.107843726873398}},{"choicesId":97696,"_id":97696,"syndicationId":1521660,"name":"Anston Medical Centre","phone":"01909 517433","odsCode":"C87002","location":{"address":["15 Quarry Lane","Sheffield"],"postcode":"S25 4DB","latitude":53.3572044372559,"longitude":-1.22358369827271}},{"choicesId":37581,"_id":37581,"syndicationId":3922,"name":"Appleton Wiske Branch surgery","phone":"01609 760 002","odsCode":"B82050","location":{"address":["The Village Hall","Appleton Wiske","Northallerton"],"postcode":"DL6 2AL","latitude":54.4376106262207,"longitude":-1.39622032642365}},{"choicesId":37051,"_id":37051,"syndicationId":16712,"name":"Apsley Surgery - Cobridge Health Centre","phone":"03007900160","odsCode":"M83627","location":{"address":["Apsley Surgery","Cobridge Health Centre, Church Terrace","Cobridge","Stoke-on-Trent","Staffordshire"],"postcode":"ST6 2JN","latitude":53.0353813171387,"longitude":-2.18699288368225}},{"choicesId":41101,"_id":41101,"syndicationId":15163,"name":"Arborfield Branch Surgery (Swallowfield Medical Practice)","phone":"0118 988 3134","odsCode":"K81003","location":{"address":["Arborfield Village Hall","Eversley Road","Arborfield Cross","Reading","Berks"],"postcode":"RG2 9PQ","latitude":51.3959770202637,"longitude":-0.906015753746033}},{"choicesId":43214,"_id":43214,"syndicationId":12864,"name":"Arcadian Gardens","phone":"020 8888 4142","odsCode":"F85034","location":{"address":["The Surgery","1 Arcadian Gardens","Bowes Park"],"postcode":"N22 5AB","latitude":51.6067276000977,"longitude":-0.110758870840073}},{"choicesId":45014,"_id":45014,"syndicationId":11666,"name":"ARCHWAY SURGERY","phone":"01442 833380","odsCode":"E82643","location":{"address":["52 High Street","Bovingdon","Hemel Hempstead","Herts"],"postcode":"HP3 0HJ","latitude":51.7227516174316,"longitude":-0.532152414321899}},{"choicesId":45100,"_id":45100,"syndicationId":14782,"name":"Archers Practice","phone":"023 80612123","odsCode":"J82020","location":{"address":["Eastleigh Health Centre","Newtown Road","Eastleigh","Hampshire"],"postcode":"SO50 9AG","latitude":50.9709587097168,"longitude":-1.35317981243134}},{"choicesId":43024,"_id":43024,"syndicationId":4704,"name":"Arden House Medical Practice","phone":"01663 748810","odsCode":"C81634","location":{"address":["Arden House Surgery","15/17 New Mills Road","Hayfield","Stockport, Cheshire"],"postcode":"SK22 2JG","latitude":53.3782615661621,"longitude":-1.94680762290955}},{"choicesId":40327,"_id":40327,"syndicationId":16721,"name":"Alton Surgery","phone":"01538 704200","odsCode":"M83640","location":{"address":["Alton Surgery","Hurston Lane","Alton","Stoke-On-Trent"],"postcode":"ST10 4AP","latitude":52.976634979248,"longitude":-1.89105117321014}},{"choicesId":42842,"_id":42842,"syndicationId":16554,"name":"Alveley Medical Practice","phone":"01746 780553","odsCode":"M82601","location":{"address":["Alveley Medical Practice","The Medical Centre","Village Road Alveley","Bridgnorth"],"postcode":"WV15 6NG","latitude":52.4547424316406,"longitude":-2.35329508781433}},{"choicesId":39089,"_id":39089,"syndicationId":44393,"name":"Ambar Medical Centre","phone":"01922 626300","odsCode":"Y00228","location":{"address":["151 Wednesbury Road","Walsall","West Midlands","England - Uk"],"postcode":"WS1 4JQ","latitude":52.5750961303711,"longitude":-1.99133944511414}},{"choicesId":37315,"_id":37315,"syndicationId":12260,"name":"Ambrose Avenue Group Practice","phone":"01206 710030","odsCode":"F81067","location":{"address":["145 London Road","Stanway","Colchester","Essex"],"postcode":"CO3 8NZ","latitude":51.8856582641602,"longitude":0.829660534858704}},{"choicesId":38445,"_id":38445,"syndicationId":4000,"name":"Ampleforth surgery","phone":"01439 788215","odsCode":"B82609","location":{"address":["Ampleforth Surgery","Back Lane","Ampleforth","York"],"postcode":"YO62 4EF","latitude":54.2004776000977,"longitude":-1.10295081138611}},{"choicesId":45824,"_id":45824,"syndicationId":44365,"name":"Anchor Centre","phone":"024 7652 7040","odsCode":"Y00060","location":{"address":["Simon House, Bird Sreet","Coventry"],"postcode":"CV1 5FX","latitude":52.4128952026367,"longitude":-1.50643169879913}},{"choicesId":41765,"_id":41765,"syndicationId":3693,"name":"Ancora Medical Practice - Detuyll St","phone":"01724 747280","odsCode":"B81026","location":{"address":["20 Detuyll Street","Scunthorpe","Lincolnshire"],"postcode":"DN15 7LS","latitude":53.597583770752,"longitude":-0.657417058944702}},{"choicesId":41430,"_id":41430,"syndicationId":16420,"name":"Alton Street Surgery","phone":"01989 563646","odsCode":"M81044","location":{"address":["Alton Street","Ross-on-Wye","Herefordshire"],"postcode":"HR9 5AB","latitude":51.911937713623,"longitude":-2.58295702934265}},{"choicesId":36671,"_id":36671,"syndicationId":4606,"name":"Alvaston Medical Centre","phone":"01332 755990","odsCode":"C81047","location":{"address":["14 Boulton Lane","Alvaston","Derby","Derby"],"postcode":"DE24 0GE","latitude":52.8937110900879,"longitude":-1.42970204353333}},{"choicesId":45046,"_id":45046,"syndicationId":14475,"name":"Al-Yaqubi N N","phone":"020 89420094","odsCode":"H84629","location":{"address":["The Village Surgery","157 High Street","New Malden","Surrey"],"postcode":"KT3 4BH","latitude":51.3995399475098,"longitude":-0.25592514872551}},{"choicesId":36022,"_id":36022,"syndicationId":3127,"name":"Ambleside Health Centre - Grasmere Branch Surgery","odsCode":"A82005","location":{"address":["1 Field Foot","Grasmere","Ambleside","Grasmere"],"postcode":"LA22 9TB","latitude":54.4596710205078,"longitude":-3.02358269691467}},{"choicesId":37829,"_id":37829,"syndicationId":13894,"name":"Amersham Vale Training Practice","phone":"020 3049 3600","odsCode":"G85698","location":{"address":["Suite 5 Waldron Health Centre","Amersham Vale","London"],"postcode":"SE14 6LD","latitude":51.4762878417969,"longitude":-0.0318960696458817}},{"choicesId":38316,"_id":38316,"syndicationId":11577,"name":"AMWELL STREET SURGERY","phone":"01992 464147","odsCode":"E82061","location":{"address":["19 Amwell Street","Hoddesdon","Herts"],"postcode":"EN11 8TS","latitude":51.7634582519531,"longitude":-0.0119099784642458}},{"choicesId":42343,"_id":42343,"syndicationId":3694,"name":"Ancora Medical Practice","phone":"01724 842244","odsCode":"B81026","location":{"address":["291 Ashby Road","Scunthorpe"],"postcode":"DN16 2AB","latitude":53.570915222168,"longitude":-0.655271768569946}},{"choicesId":39201,"_id":39201,"syndicationId":12940,"name":"ALTERNATIVE HEALTH CARE SCHEME","phone":"0208 702 3000","odsCode":"F85711","location":{"address":["St Anns Hospital","St Anns Road","London","Tottenham"],"postcode":"N15 3TH","latitude":51.5806274414063,"longitude":-0.0920822471380234}},{"choicesId":42218,"_id":42218,"syndicationId":24814,"name":"Alvanley Family Practice","phone":"0161 426 5757","odsCode":"P88019","location":{"address":["Woodley Health Centre","Hyde Road","Woodley","Stockport","Cheshire"],"postcode":"SK6 1ND","latitude":53.4262924194336,"longitude":-2.09964609146118}},{"choicesId":42793,"_id":42793,"syndicationId":4242,"name":"Alwoodley Medical Centre","phone":"0113 3930119","odsCode":"B86008","location":{"address":["Saxon Mount","Moortown","Leeds","Yorkshire"],"postcode":"LS17 5DT","latitude":53.8470268249512,"longitude":-1.5516676902771}},{"choicesId":39710,"_id":39710,"syndicationId":3128,"name":"Ambleside Health Centre","phone":"015394 32693","odsCode":"A82005","location":{"address":["Rydal Road","Ambleside","Cumbria"],"postcode":"LA22 9BP","latitude":54.4350471496582,"longitude":-2.96632623672485}},{"choicesId":37411,"_id":37411,"syndicationId":15290,"name":"Amersham Health Centre","phone":"01494 434344","odsCode":"K82004","location":{"address":["Amersham Health Centre","Chiltern Avenue","Amersham","Buckinghamshire"],"postcode":"HP6 5AY","latitude":51.6750373840332,"longitude":-0.604171931743622}},{"choicesId":35585,"_id":35585,"syndicationId":12671,"name":"Amwell Group Practice","phone":"020 7837 2020","odsCode":"F83652","location":{"address":["Amwell Group Practice","4 Naoroji Street","London"],"postcode":"WC1X 0GB","latitude":51.5280418395996,"longitude":-0.1108029037714}},{"choicesId":43305,"_id":43305,"syndicationId":16612,"name":"Anchor Medical Practice","phone":"01827 251251","odsCode":"M83043","location":{"address":["Glascote Health Centre","Caledonian","Glascote Heath","Tamworth"],"postcode":"B77 2ED","latitude":52.6219673156738,"longitude":-1.66379725933075}},{"choicesId":43323,"_id":43323,"syndicationId":12677,"name":"Andover Medical Centre","phone":"020 7281 6956","odsCode":"F83666","location":{"address":["Andover Medical Centre","270-282 Hornsey Road","London"],"postcode":"N7 7QZ","latitude":51.561767578125,"longitude":-0.116446174681187}},{"choicesId":41584,"_id":41584,"syndicationId":3126,"name":"Alston Medical Practice","phone":"01434 381214","odsCode":"A82004","location":{"address":["The Surgery","Cottage Hospital","Alston","Cumbria"],"postcode":"CA9 3QX","latitude":54.8102111816406,"longitude":-2.43981957435608}},{"choicesId":44825,"_id":44825,"syndicationId":24888,"name":"ALTRINCHAM MEDICAL PRACTICE","phone":"0161 928 2424","odsCode":"P91004","location":{"address":["Lloyd House","7 Lloyd Street","Altrincham","Cheshire"],"postcode":"WA14 2DD","latitude":53.3845138549805,"longitude":-2.3515989780426}},{"choicesId":39494,"_id":39494,"syndicationId":15843,"name":"Alverton Practice","phone":"01736 363741","odsCode":"L82021","location":{"address":["Alverton Practice","7 Alverton Terrace","Penzance","Cornwall"],"postcode":"TR18 4JH","latitude":50.118221282959,"longitude":-5.54166173934937}},{"choicesId":40629,"_id":40629,"syndicationId":3392,"name":"Amble Health Centre","phone":"01665 710481","odsCode":"A84022","location":{"address":["Percy Drive","Amble","Morpeth","Northumberland","Northd"],"postcode":"NE65 0HD","latitude":55.3326034545898,"longitude":-1.58048868179321}},{"choicesId":43478,"_id":43478,"syndicationId":12261,"name":"Ambrose Avenue Group Practice","phone":"01206 549444","odsCode":"F81067","location":{"address":["76 Ambrose Avenue","Colchester","Essex"],"postcode":"CO3 4LN","latitude":51.8806304931641,"longitude":0.862811148166656}},{"choicesId":40917,"_id":40917,"syndicationId":12619,"name":"Ampthill Practice","phone":"020 7383 7333","odsCode":"F83006","location":{"address":["Crowndale Health Centre","59 Crowndale Road","London"],"postcode":"NW1 1TN","latitude":51.5345993041992,"longitude":-0.137278363108635}},{"choicesId":40164,"_id":40164,"syndicationId":13146,"name":"Anchor Field Surgery","phone":"01273 812338","odsCode":"G81035","location":{"address":["30 Anchor Field","Lewes","Ringmer","East Sussex"],"postcode":"BN8 5QN","latitude":50.8923492431641,"longitude":0.0608263984322548}},{"choicesId":43904,"_id":43904,"syndicationId":6042,"name":"Andaman Surgery","phone":"01502 517346","odsCode":"D83608","location":{"address":["303 Long Road","Lowestoft","Suffolk"],"postcode":"NR33 9DF","latitude":52.4569129943848,"longitude":1.71549952030182}},{"choicesId":38649,"_id":38649,"syndicationId":12205,"name":"Barbara Castle Health Centre","phone":"08445769140","odsCode":"F81016","location":{"address":["Broadley Road","Harlow","Essex"],"postcode":"CM19 5SJ","latitude":51.748893737793,"longitude":0.0738092139363289}},{"choicesId":39615,"_id":39615,"syndicationId":12833,"name":"BARKANTINE PRACTICE","phone":"020 7510 4000","odsCode":"F84747","location":{"address":["121 Westferry Road","London"],"postcode":"E14 8JH","latitude":51.500804901123,"longitude":-0.0257105752825737}},{"choicesId":45148,"_id":45148,"syndicationId":24580,"name":"Barlow Medical Centre","phone":"0161 445 9000","odsCode":"P84034","location":{"address":["828 Wilmslow Road","Didsbury","Manchester"],"postcode":"M20 2RN","latitude":53.4131660461426,"longitude":-2.23141956329346}},{"choicesId":42423,"_id":42423,"syndicationId":13622,"name":"Barnard Medical Practice","phone":"020 8302 7721","odsCode":"G83004","location":{"address":["43 Granville Road","Sidcup","Kent"],"postcode":"DA14 4TA","latitude":51.427921295166,"longitude":0.105564042925835}},{"choicesId":43473,"_id":43473,"syndicationId":15952,"name":"BARNFIELD HILL SURGERY","phone":"01392 432761","odsCode":"L83024","location":{"address":["12 Barnfield Hill","St Leonards","Exeter","Devon"],"postcode":"EX1 1SR","latitude":50.7234001159668,"longitude":-3.52038288116455}},{"choicesId":44449,"_id":44449,"syndicationId":6011,"name":"Barrack Lane Medical Centre","phone":"01473 252827","odsCode":"D83059","location":{"address":["1 Barrack Lane","Ipswich","Suffolk"],"postcode":"IP1 3NQ","latitude":52.0603790283203,"longitude":1.14632451534271}},{"choicesId":43221,"_id":43221,"syndicationId":24447,"name":"Barrowford Surgery","phone":"01282 612621","odsCode":"P81757","location":{"address":["Barrowford Surgery","Ridgeway","Barrowford","Nelson Lancashire"],"postcode":"BB9 8QP","latitude":53.8485336303711,"longitude":-2.22376942634583}},{"choicesId":40848,"_id":40848,"syndicationId":11505,"name":"Barton Hills Medical Group","phone":"01582 490087","odsCode":"E81632","location":{"address":["Whitehorse Vale","Barton Hills","Luton","Bedfordshire"],"postcode":"LU3 4AD","latitude":51.9199104309082,"longitude":-0.437857508659363}},{"choicesId":37782,"_id":37782,"syndicationId":15030,"name":"Barcroft Medical Practice","phone":"01980 623983","odsCode":"J83005","location":{"address":["Barcroft Medical Centre","The Centre","Amesbury Salisbury","Wiltshire"],"postcode":"SP4 7DL","latitude":51.1729431152344,"longitude":-1.78051221370697}},{"choicesId":38717,"_id":38717,"syndicationId":44478,"name":"Barlby Surgery","phone":"0208 962 5100","odsCode":"Y01011","location":{"address":["St Charles Centre for Health and Wellbeing","Exmoor Street","London"],"postcode":"W10 6DZ","latitude":51.5223617553711,"longitude":-0.217203587293625}},{"choicesId":127863,"_id":127863,"syndicationId":7353212,"name":"Barmston Medical Centre","odsCode":"A89025","location":{"address":["Westerhope Rd","Washington"],"postcode":"NE38 8JF","latitude":54.9015960693359,"longitude":-1.50909686088562}},{"choicesId":42988,"_id":42988,"syndicationId":5340,"name":"Barnburgh Surgery","phone":"01709 882032","odsCode":"C86606","location":{"address":["Fox Lane","Barnburgh","Doncaster","South Yorkshire","South Yorkshire"],"postcode":"DN5 7ET","latitude":53.5223731994629,"longitude":-1.26958894729614}},{"choicesId":42252,"_id":42252,"syndicationId":24267,"name":"Barnoldswick Medical Centre","phone":"01282 811911","odsCode":"P81078","location":{"address":["The New Surgery","Park Road","Barnoldswick","Lancashire"],"postcode":"BB18 5BG","latitude":53.9151268005371,"longitude":-2.18580627441406}},{"choicesId":39659,"_id":39659,"syndicationId":12773,"name":"BARRETTS GROVE SURGERY","phone":"020 7254 1661","odsCode":"F84636","location":{"address":["6 Barretts Grove","London"],"postcode":"N16 8AR","latitude":51.5522003173828,"longitude":-0.0782704427838326}},{"choicesId":38942,"_id":38942,"syndicationId":15538,"name":"Bartlemas Surgery","phone":"01865 263120","odsCode":"K84032","location":{"address":["Bartlemas Surgery","East Oxford Health Centre","Manzil Way","Oxford"],"postcode":"OX4 1XD","latitude":51.7471885681152,"longitude":-1.23247849941254}},{"choicesId":43772,"_id":43772,"syndicationId":12692,"name":"BARTON HOUSE GROUP PRACTICE","phone":"020 7249-5511","odsCode":"F84008","location":{"address":["233 Albion Road","London"],"postcode":"N16 9JT","latitude":51.5604553222656,"longitude":-0.0839095860719681}},